Scats,longitude,latitude,location
5168,144.377875000086,-38.2366569988309,BARWON HEADS ROAD/WARALILY BVD
2015,145.24197400045,-37.8692499992282,MELBOURNE NR HOBART (KNOX CITY)
6273,144.280338999791,-36.7613119990048,MITCHELL/QUEEN
520,145.133708999782,-38.1956659988826,MOOROODUC/SAGES
3629,144.853383999994,-37.7861339994886,CHURCHILL NR BRAYBROOK COMMUNITY CENTRE
3170,145.283073000461,-38.1115369990355,STH GIPPS'D HWY (HIGHST) NR CHILDERS
3171,145.283487000277,-38.1092949988792,STH GIPPS'D HWY (HIGH) NR LYALL
550,144.879111000335,-38.3672059988917,EASTBOURNE RD/VILLAGE GLEN DR
3486,144.882678999933,-37.8169509990932,WILLIAMSTOWN/SHOPPING CENTRE ENT
516,145.136270000339,-38.1089339992953,SEAFORD/WELLS
3259,145.027710999581,-37.7406289991995,MURRAY/NORTHLAND SHOP EAST ACCESS RD
3612,144.922434000295,-37.6624669989102,PASCOE VALE/TAGGERTY CRES STH
3487,144.88143700001,-37.8234489990964,WILLIAMSTOWN NR THOMAS
4160,144.99294299952,-37.761825999483,ST GEORGES NR KEMP
395,145.159187000263,-38.0127869991054,HUTTON/CHAPEL
495,145.171278999637,-38.0114969990627,HUTTON/GREEN/PERRY
6258,144.244077000061,-36.7962409988957,CALDER HWY NR CAMP
2855,144.883619000413,-37.6886059992944,GLADSTONE PARK NR BELMONT
6234,143.868051999848,-36.5754119995012,CALDER HWY NR VERDON ST
3443,145.032066000268,-37.9176579990206,CENTRE NR GILBERT
5047,144.355793000298,-38.138647998806,WESTERN BEACH NR GINN
965,145.239141999989,-38.0209239994225,STH GIPPSLAND HWY/WATERVIEW
827,145.262922000192,-37.8884679993682,FERNTREE GULLY/WINDERMERE
2839,145.05596399946,-37.830684998994,CAMBERWELL NR EVANS
513,145.36674800018,-38.0441309987973,BEACONSFIELD-BERWICK/B'FIELD-EMERALD
514,145.195116999946,-38.1507119994157,CRANBOURNE-FRANKSTON/UNION/PINDARA
805,145.139219999631,-37.7794169994554,GEORGE/CHURCH
396,145.310423999998,-38.0079839994751,NARRE WARREN NTH/MARAMBA
7093,147.382081000173,-37.6984429994081,AQUEDUCT/ST HELENA SHOP CENTRE
301,145.274055000521,-37.7835699990111,PLYMOUTH/YARRA
4489,144.965826000198,-37.8267579991945,WESTGATE FWY/POWER
820,145.38789599956,-37.7900099991759,MONBULK/CLEGG
2465,145.001941999598,-37.8007199991971,JOHNSTON O/H LANE W CLARKE GANTRY 15
2466,145.002421999878,-37.8007649994855,JOHNSTON O/H LANE E CLARKE GANTRY 16
2444,144.973321000002,-37.8367509988501,QUEENS O'HEAD S KINGSWAY GANTRY 01
2456,144.990760000434,-37.7996229989992,JOHNSTON O/H LANE W HARMSWORTH GANTRY 6
2457,144.992196999853,-37.7997659993966,JOHNSTON O/H LANE W SYDNEY GANTRY 7
2458,144.993276000283,-37.7998739993667,JOHNSTON O/H LANE E HODDLE GANTRY 8
2459,144.995174999575,-37.8000589995544,JOHNSTON O/H LANE W PARK GANTRY 9
2460,144.995572999667,-37.8000969987591,JOHNSTON O/H LANE E PARK GANTRY 10
2461,144.997220999626,-37.8002579991798,JOHNSTON O/H LANE E RICH GANTRY 11
2462,144.998574000555,-37.8003899991488,JOHNSTON O/H LANE E HUNTER GANTRY 12
2463,144.99972900032,-37.8005039994219,JOHNSTON O/H LANE W TRENERRY GANTRY 13
302,145.19665000046,-38.1492249989657,CRANBOURNE-FRANK/SOUTHGATEWAY
3281,145.106998999861,-37.8927359988551,HUNTINGDALE NR ESTELLE
2518,144.87166899974,-37.8006239992124,SUNSHINE/ROBERTS
2791,144.899491999764,-37.7401709991382,KEILOR NR COOPER
109,145.363422999852,-37.7764509992103,SWANSEA/HULL
1558,144.883789999931,-37.8253639987433,WGF 130m West of Williamstown Rd O/B
2486,145.078689999589,-37.8874399989738,CHADSTONE SHOPPING CENTRE POS AT ENT 1
963,145.172622999674,-37.9941409989511,CHELTENHAM/PARKMORE SHOP CENTRE
5657,147.632011000132,-37.8260319994361,PHE/BAILEY
1100,145.217350000459,-37.817105998875,MAROONDAH HWY/EASTLINK
1101,145.215096000291,-37.8173719994581,MAROONDAH HWY/HILLCREST/CARPARK
4224,145.020154000205,-37.8265079995115,SWAN/YARRA/AMRAD
5268,144.706347999545,-37.8505319988131,SAYERS/MORRIS
403,145.309269999673,-38.0138859993955,NARRE WARREN NTH/MAGID/RYELANDS
4434,144.939097000188,-37.8105229989652,FOOTSCRAY/WATERFRONT WAY
4435,144.935965999442,-37.8095089995267,FOOTSCRAY/WESTERN LINK STH-BND OFF RAMP
336,145.040741999867,-38.2203669994999,BARKLY/RAILWAY/RING
3079,145.044641000218,-37.7669839991912,UPPER HEIDELBERG NR IVANHOE
2799,144.860221000324,-37.749348999316,AMIS BTN VISTA & BUCKLEY
3138,145.115199000173,-37.8279879993734,CANTERBURY/SURREY
5301,144.345342999833,-38.1563179987431,PAKINGTON/NICHOLAS
241,145.143340999773,-38.0685989990398,THOMPSON NR GLADESVILLE
3639,145.090829000103,-37.9397829987986,OLD DANDENONG/BOURKE
3405,144.917100999566,-37.801761999138,DYNON/DOCK LINK
478,145.128625000161,-37.877967999107,VIRGINIA NR STEPHENSONS
2647,144.810367999459,-37.8155289989836,BOUNDARY/PLUMMER/SPENCER
3760,144.885490000541,-37.8459529993942,MELBOURNE NR WILKINS
6682,146.539677999451,-38.1934309992651,GREY BTN FRANKLIN & WRIGHT
6683,146.538092999549,-38.1954359987153,FRANKLIN NR POST OFFICE PLACE
6684,146.536679999469,-38.1961089990202,SEYMOUR BTN FRANKLIN & CHURCH
5670,148.453753000251,-37.7093989991822,NICHOLSON BTN RAYMOND & LOCHIEL
3567,145.065109999787,-37.8971249994797,MURRUMBEENA/KANGAROO
304,145.211947999784,-38.0316599992706,FRANKSTON-DANDENONG/ABBOTTS
3507,144.881869999658,-37.8571349993867,KOROROIT CREEK NR ADELINE
401,145.312828000383,-37.9967019993713,NARRE WARREN NTH/ERNST WANKE
6408,142.204979000191,-36.7260869994053,WESTERN HWY/WILLIAMS/DUFF
2670,144.823464000008,-37.7616999988395,FURLONG NR CAMPERDOWN
2671,144.828619999468,-37.7623539990797,FURLONG NR FORD
2672,144.799820000471,-37.7454849993811,MCKECHNIE BTN MARSDEN & ENA
4654,145.013490000191,-37.8118359990166,VICTORIA/RIVER
757,145.12514200035,-38.144021999337,YOUNG NR WELLS
943,145.155597999871,-37.9340239987388,SPRINGVALE/SPOTLIGHT CENTRE
445,145.30110999983,-38.0222799991667,PHE/OVERLAND
308,144.830858999615,-38.3710649991373,POINT NEPEAN/HYGEIA
4515,144.945934000412,-37.8147289993986,LATROBE NR HARBOUR
5048,144.36455499962,-38.1451429989885,YARRA/EASTERN BEACH
4527,144.947160999909,-37.8135519989561,WURUNDJERI/TELSTRA DOME N/E ENTRANCE
3417,144.968773999455,-37.7972929992047,ELGIN/DRUMMOND
539,145.14612100029,-37.8951759987867,MONASH FWY/BLACKBURN O/B
3409,144.985044999979,-37.8241459990201,OLYMPIC BLVD/RECTANGULAR STADIUM EAST AC
5238,144.708581000006,-37.8787509992071,OLD GEELONG/FIAT DEALERSHIP ENT
6334,145.355925000506,-36.3924319995481,ECHUCA-MOOROOPNA NR ANN
6409,142.196254000189,-36.7104959994908,WESTERN HWY/WAWUNNA
2661,144.566338000542,-37.6942909988812,COBURNS/RICHARD
2659,144.797384999862,-37.7280369987712,TAYLORS/CARBINE
6681,145.530272999501,-38.4075329988001,BASS HWY/GRANTVILLE-GLEN ALVIE/PIER
5834,143.840978999977,-37.5866029989992,MIDLAND HWY (ALBERT) NR HERTFORD
5835,143.841073000114,-37.5992809990051,MIDLAND HWY NR VICTORIA
399,145.340419999855,-38.0492599992772,BERWICK-CRANBOURNE/BEMERSYDE (NTH)
3211,145.136360999705,-37.9288049987876,MCNAUGHTON NR TORTEVAL
4557,144.976220000226,-37.8203829993004,BATMAN NR GATE 2 MELBOURNE PARK TENNIS C
3548,144.994699000537,-37.9142019988828,CHURCH NR CARPENTER
3547,144.992335000252,-37.9121249987111,CHURCH NR ST ANDREWS
2648,144.831715000264,-37.7864179989531,HAMPSHIRE NR HARVESTER
389,145.369967000457,-37.7513389988431,MAROONDAH NR COMO
402,145.165052000531,-37.8785399992328,O'SULLIVAN NR GLENWAY ARCADE
3837,145.06491599992,-37.8267039989548,STANHOPE NR LORNE
158,145.279466000253,-37.8288049994386,CANTERBURY/BUNNINGS HARDWARE ACCESS
3009,144.989563999445,-37.8865739988005,ORMOND ESP NR PINE
2646,144.567553000376,-37.6875769989394,COBURNS/BARRIES
4637,145.056825000501,-37.9593309987025,CHESTERVILLE NR RADCLIFFE
588,145.280456000209,-37.7948799994573,WICKLOW NR TOORAK
6250,144.266885000016,-36.7357029994071,HOLDSWORTH/HOLMES/SANDHURST
6251,144.288514999933,-36.7524129993206,NAPIER NR TOMLINS ST BRIDGE
2182,144.928266999868,-37.6305679991599,DONALD CAMERON/LINCOLN/THOMAS BRUNTON
2813,144.962813999664,-37.6450669993421,COOPER/FREIGHT/REX
2059,144.789754999949,-37.7631659988575,CAIRNLEA/WOODBURN
3242,145.080122000566,-37.6562699992764,PLENTY/BUSH/DEVELOPMENT
2677,144.84934499993,-37.7672839988538,DUKE/SURREY
5659,147.624405999604,-37.8276829993053,PHE/MCCULLOCH
2893,144.848636000029,-37.8289169993297,MILLERS/BEURON
3524,144.93028400055,-37.7882449992543,RACECOURSE NR PIN OAK
3485,144.783231000509,-37.844333998925,PFW NB RAMPS/KOROROIT CREEK
509,145.293147000205,-38.0016459991667,MONASH FWY/TINKS
398,145.271347999599,-38.0741149992005,STH GIPPS'D HWY/HUON PARK/WENTWORTH
5271,144.72687399963,-37.8523329989301,SAYERS/MARQUANDS
3723,145.1426630002,-37.8947609994373,MONASH/BLACKBURN RAMP SIGNALS IB
5609,147.068247999711,-38.0964379993505,PHE NR PINE
391,145.23516599967,-37.9022259987259,STUD/CENTRE
756,145.139249999662,-38.1737279988376,MOOROODUC HWY/ROBINSONS
2792,145.031103999551,-37.6730549994434,DALTON NR DAVID
1046,144.95971199963,-37.7821279988051,ROYAL NR IEVERS
5109,144.328314000484,-38.1205779986903,VINES NR MARLO
5039,144.358367999773,-38.1465279986898,GHERINGHAP/MALOP/MERCER
2397,144.962224000174,-37.8278259994337,KINGSWAY/SOUTHERN LINK
303,145.267158000063,-38.0356789989813,HALLAM/CORAL/FORDHOLM
6827,142.464041999598,-38.3668109995518,PHW (RAGLAN PDE)/MORRISS
6828,142.468519000068,-38.3694559995405,PHW (RAGLAN PDE)/LAVEROCK
5231,144.317633999736,-38.3266169989903,SURF COAST HWY NR BEACH
964,145.225057000429,-38.0332969990795,ABBOTTS/CLELANDS DEVELOPMENTS
508,145.338180000297,-38.0598929993571,CLYDE/GREAVES/O'SHEA
5117,144.35802499946,-38.1488139991998,RYRIE NR JAMES
5118,144.360561000376,-38.149536999259,RYRIE NR UNION
5881,143.844722999839,-37.5756319989084,MIDLAND HWY SKIPTON/DARLING/DRUMMOND
5119,144.354766000407,-38.1394969987131,MERCER NR GINN
5273,144.737423,-37.8752259990054,PFW/FORSYTH
2014,145.244812000464,-37.8749799986672,HIGH ST RD/TYNER
107,145.260270999499,-37.7934099991377,MAROONDAH/KALLAY/BRENTNALL
6814,142.493489999487,-38.3673349988359,HOPKINS HWY / HAYLEY / NORTHPOINT SC
4638,145.109326000342,-37.9861629989502,BOUNDARY / LOWER DANDENONG
4438,144.994785000311,-37.8493869993707,LITTLE CHAPEL NR PRINCES
4442,144.994758000436,-37.8469499987367,BRAY NR GREY
6290,144.316158000288,-36.705154999329,MIDLAND HWY/HOWARD
3741,145.05561600012,-37.7044739988658,PLENTY/MT COOPER
1011,144.922660000483,-37.7799489990335,ASCOT VALE/KENT
2673,144.817196000371,-37.7904269994925,GLENGALA BTN SIMMIE & OLDFIELD
6235,144.258692000513,-36.7258769991371,LODDON VALLEY/SANDHURST
4150,145.006375999671,-37.8302779987311,BURNLEY/BARKLY/CITYLINK OFF RAMPS
803,145.244148999517,-37.9265499990048,WELLINGTON/TAYLORS
4558,144.986708999841,-37.824341999349,OLYMPIC BLVD(SWAN)/TRAM ACCESS
2193,144.945480999605,-37.5394769992302,DONNYBROOK/HUME FWY NB RAMPS
5164,144.367589999908,-38.1793299986718,BREAKWATER/FELLMONGERS
507,145.121347999904,-38.0709569989871,NEPEAN HWY/STATION
3047,144.874065000091,-37.7522189987431,BUCKLEY/DICKSON
6081,145.402228000436,-36.3574599990395,GVH/PINE/BRAUMAN
2352,145.065273999529,-37.9750049990323,NEPEAN HWY NR LATROBE
5610,147.06880999945,-38.093563999425,PHE/SALE-MAFFRA
3917,144.995189999448,-37.8416319987754,CHAPEL/PALERMO
2519,144.85983400042,-37.8138159987431,PHW/CEMETERY
3644,145.083548999783,-37.9539469987805,KINGSTON/BALL/ST ANDREWS
6451,142.165885999542,-34.2314169992389,CALDER HWY/KARADOC
4108,145.004653000165,-37.8777409987372,GLEN EIRA NR ST GEORGES
2464,145.000155000282,-37.8005449991581,JOHNSTON O/H LANE E TRENERRY 14
6075,145.398849999948,-36.3831459987059,GVH (WYNDHAM) / VAUGHAN
2589,144.771016999495,-37.7100609993861,HUME DRIVE/COPPERFIELD
3759,144.884737999702,-37.8448009989723,NORTH NR HALL
1153,145.348147999639,-38.0302399989481,WHEELER NR WILSON
1155,145.240272000418,-37.9946169995099,HAWTHORN NR AUTUMN
1102,145.216982999433,-37.8323839990689,CANTERBURY/EASTLINK
1103,145.211129999758,-37.8612089990961,BURWOOD HWY/EASTLINK
1104,145.216330999792,-37.8461749986876,BORONIA/EASTLINK
1123,145.287316999613,-37.8320979995404,DORSET/CLIPSAL
1107,145.214385000045,-37.9035419995187,FERNTREE GULLY/EASTLINK
1181,145.197495000078,-37.9679199989572,HEATHERTON/LINK
5218,144.394306000269,-38.171402998688,BELLARINE HWY NR NELSON
5219,144.347271999846,-38.181856999118,CORIO-WAURN PONDS(SETTLEMENT) NR FRANCIS
2635,144.835906000063,-37.7890009987069,MONASH NR WHITTY
886,145.266233999432,-37.7899889987966,MAROONDAH NR RYLAND
2636,144.796278999477,-37.7007369991471,MELTON HWY/VERONA
2637,144.786380000287,-37.6985789991998,MELTON HWY/PARMELIA
2638,144.781239000192,-37.6974509989151,MELTON HWY/KINGS
2639,144.778268000376,-37.6968179991557,MELTON HWY/SHOPPING CENTRE ENT 2
2640,144.774555999819,-37.6958819990671,MELTON HWY/MCCUBBIN
6315,144.699465999574,-36.3617759991922,NORTHERN HWY BTN FRASER/GILLIES
4729,144.946529999814,-37.8410129990319,PICKLES/LIARDET/RICHARDSON
3525,144.896361999621,-37.8587379993046,FERGUSON BTW LYONS/BATH
4528,144.975676000265,-37.8184989989882,BATMAN/MELB PARK NTH ACCESS
4529,144.976385000459,-37.8184059994474,MELBOURNE PARK NTH ACCESS/FED SQ ACCESS
5114,144.324397000069,-38.1715159993393,BARRABOOL/BELLE VUE
572,145.531403999989,-37.7803059987485,WARBURTON/HEALESVILLE-KOO WEE RUP
530,145.321917000455,-38.0281799987439,MONASH/PHE
5027,144.366359999457,-38.1535079991426,MYERS/SWANSTON
517,145.180801999939,-38.1155589991172,BALLARTO NR GREENWOOD
3868,144.992663999459,-37.8178489994401,BRIDGE NR VERITY
962,145.140311000463,-37.9411469986939,WESTALL/ROSEBANK
3664,145.045575000176,-37.8420949989057,TOORONGA NR BETHUNE
2181,144.950588000155,-37.6380509990564,HUME/AUSTRAK
3145,145.106965999661,-37.9719679993453,CENTRE DANDENONG/CHIFLEY
595,145.201757000465,-38.0130159990158,GREENS/SOUTH PARK DEVELOPMENT ACCESS
6654,146.408926000242,-38.2398059991682,PRINCES/VINCENT
3949,145.004787000385,-37.8974989992588,MARTIN NR SPINK
3188,145.362840999457,-38.0816379991481,Soldiers Rd/ Viewbright Rd/ Skylark Blvd
3147,145.11788500033,-37.9876739991952,LOWER DANDENONG/WOODLANDS
767,145.285771999768,-37.8597839988727,DORSET/CHANDLER
3394,144.98813400028,-37.8288649989029,MONASH ON RAMP NR PUNT
316,145.11007799973,-37.7822109991112,HIGH NR VILLAGE
2043,145.132725999539,-37.7871909992909,DONCASTER/WHITTENS
6069,145.409574999846,-36.3990329989022,ARCHER/WILMOT/POPLAR
365,145.185861999435,-37.8765029986985,HIGH ST RD/CAPITAL
490,145.207326000043,-37.9566449987245,GLADSTONE/HALTON
966,145.241384999846,-37.9774469993019,POWER NR MONASH FWY
2595,144.744229999919,-37.691937998686,MELTON HWY/GOURLAY
2050,144.832818999854,-37.7545969995113,MCINTYRE/WHITEHILL
2808,145.047362999634,-37.6624899993887,CHILDS/PRINCE OF WALES
2809,145.060683000477,-37.667952999157,CHILDS/BETULA
3241,145.014113999543,-37.7537229988194,VICTORIA/DUNDAS
491,145.160413999922,-37.9189019988283,WELLINGTON/COLES MYER HOUSE
394,145.460130000424,-38.0630009987473,PHE/DOHERTY
4512,144.960867000424,-37.8092499987412,ELIZABETH/A'BECKETT
4514,144.951685999737,-37.8081629993925,KING/ROSSLYN/CHETWYND
4517,144.952365000276,-37.8092389995562,KING/DUDLEY
4518,144.94305299949,-37.8054409993566,DRYBURGH/SPENCER/MILLER
4519,144.944844999968,-37.8061459991063,SPENCER/ABBOTSFORD
4520,144.946967999632,-37.8070909991462,SPENCER/HAWKE
4521,144.949987000453,-37.8101329994942,SPENCER/DUDLEY
4522,144.947823000255,-37.8109559991469,DUDLEY/ADDERLEY
4523,144.962837999679,-37.8074649989393,SWANSTON/FRANKLIN
4524,144.948655000511,-37.8055049994986,KING/HAWKE
4525,144.954608000187,-37.8212339994295,FLINDERS EXT/WORLD TRADE CENTRE ACCESS
4531,144.968433999508,-37.8196209987435,ST KILDA NR CONCERT HALL
4534,144.971361999987,-37.8282519990059,ST KILDA NR COVENTRY
4535,144.971337000535,-37.830285999136,ST KILDA NR DORCAS
4536,144.971923000049,-37.8324419991832,ST KILDA/PARK/DOMAIN
4537,144.992351999787,-37.8466339989569,COMMERCIAL/IZETT
4538,144.975537999784,-37.8362179987005,ST KILDA/KINGSWAY
4463,144.94745299998,-37.7936149989483,FLEMINGTON/ABBOTSFORD
4464,144.950209000121,-37.7958099990646,FLEMINGTON NR CHILDREN'S HOSPITAL
4465,144.951197000313,-37.7965959993168,FLEMINGTON/GATEHOUSE/HARKER
4466,144.955033999916,-37.7996519987028,FLEMINGTON/GRATTAN/WRECKYN
4467,144.949757999892,-37.7883529989884,ELLIOT/TRAMWAY CROSSING
4468,144.952456000174,-37.7975989991532,FLEMINGTON NR PARK
4469,144.922122000031,-37.7874189990247,RACECOURSE NR CROWN
4470,144.937138999935,-37.7841079995056,MT ALEXANDER/MOOLTAN
4471,144.932541000061,-37.7811729994556,MT ALEXANDER/WELLINGTON
4472,144.929483000377,-37.7881579994648,RACECOURSE/EASTWOOD
4480,144.927698999714,-37.7941389986788,MACAULAY/EPSOM/KENSINGTON
4481,144.930176000524,-37.7944409993448,MACAULAY NR BELLAIR
4482,144.914853999682,-37.8015149987369,DYNON/KENSINGTON
4483,144.929160999613,-37.8030859988101,DYNON/LLOYD
4484,144.93486000001,-37.7949749994442,MACAULAY/STUBBS
4485,144.936623999947,-37.7951769987055,MACAULAY NR LANGFORD
4490,144.938870999713,-37.7954329995579,BOUNDARY/MACAULAY
4492,144.943978000304,-37.8003009993688,ARDEN/DRYBURGH/MACAULAY
4493,144.94590099994,-37.8005279992297,ARDEN/ABBOTSFORD
5084,144.342888999844,-38.113437998893,THOMPSON NR VISTULA
5085,144.341271000378,-38.1217659988143,THOMPSON/VICTORIA
5086,144.343763000228,-38.1882589988536,SURF COAST HWY NR CHERYL
5087,144.342407999472,-38.1956689991943,SURF COAST HWY/MARSHALLTOWN
5089,144.372346000216,-38.1529379994118,RYRIE/GARDEN
5194,144.473448000006,-38.1914469995052,BELLARINE HWY/CHRISTIES RD/CLAREMONT DR
5193,144.464290000014,-38.1891799991603,BELLARINE HWY/KENSINGTON
5192,144.378231999856,-38.1621169990461,BELLARINE HWY(ORMOND RD)/HUMBLE
5083,144.33997099998,-38.2085799993248,SURF COAST HWY/HEYERS
4657,144.99879600044,-37.7704249993422,HIGH NR LAWRY
598,145.312650000316,-38.0271489993359,PHE/VICTOR
5057,144.354110999988,-38.1617039988483,MOORABOOL/FYANS
5058,144.350644000237,-38.1675789991818,HIGH ST/BARWON HEADS/BARRABOOL
5059,144.346875999559,-38.1711579992831,HIGH/MT PLEASANT
3878,145.009591999851,-37.8124449992047,BURNLEY/NORTHERN ACCESS RD
4157,144.996992000096,-37.7793899995328,HIGH NR UNION
4987,145.06891099989,-37.6830019994783,PLENTY/BETULA
4986,145.069125999989,-37.681840999353,PLENTY/CLEMENTS
4978,144.886945999544,-37.857668999534,FERGUSON NR MELBOURNE
5255,144.637304999854,-37.8959909990055,BALLAN/CAMBRIDGE
5088,144.3409590005,-38.2031109990249,SURF COAST HWY/PIONEER
5060,144.344573000385,-38.1733219987476,HIGH/REGENT
5061,144.342373000479,-38.1753879993726,HIGH NR ROSLYN
5062,144.342373000479,-38.1753879993726,HIGH/ROSLYN/THOMSON/CORIO
5063,144.339348000166,-38.1782209986752,HIGH NR DOROTHY
5066,144.327742000233,-38.1893459992081,CORIO-WAURN PONDS / REYNOLDS
4433,144.832489000007,-37.7825199991602,HAMPSHIRE NR SERVICE
753,145.130796999625,-38.110544999126,SEAFORD/RAILWAY/FORTESCUE
5105,143.581659999859,-38.3392989994302,PHW/GRANT/HART
1260,145.205079000421,-38.1446699990573,CRANBOURNE-FRANKSTON/NORTHGATEWAY/QUARRY
1261,145.211640000539,-38.1416489988363,CRANBOURNE-FRANKSTON/CENTRE/POTTS
6291,144.308553000053,-36.7751919995343,CONDON/RESERVOIR
3474,144.770989000455,-37.8635409991712,MAHER NR THOMAS
2683,144.558998999966,-37.6849579991645,HIGH/BARRIES
6446,142.137233999932,-34.2077839995556,CALDER HWY NR MILDURA PLAZA
2735,144.820191999973,-37.7355629994679,SUNSHINE/CALVERTON
2741,144.807882999638,-37.7233569994533,SUNSHINE/COPERNICUS
801,145.234714999594,-37.9191909992184,STUD/STUD PARK SHOPPING CENTRE
6078,145.395800000531,-36.3794039994343,MIDLAND HWY/FRYERS
961,145.245487000316,-38.0349339994161,STH GIPPS'D HWY/ABBOTTS
705,145.104749000537,-37.7724169987429,MANNINGHAM/AYR
848,145.185177000439,-37.8362699995649,CANTERBURY/STEVENS
2634,144.829734999941,-37.7716009995097,MCINTYRE/SUFFOLK
2212,145.22437499999,-37.8167339992295,MAROONDAH HWY/MARKET/MURRAY
2701,144.800222000366,-37.7016279990214,MELTON HWY/SUNSHINE
591,145.381209999833,-38.2137379994912,STH GIPPS'D HWY NR LYALL
6823,142.482458999827,-38.3830939995087,KOROIT NR LIEBIG & KEPLER
159,145.253613999864,-37.8750269987967,BURWOOD HWY/LAKEWOOD
3484,144.80899999982,-37.8494709986865,MAIDSTONE NR GATE 6
4775,145.023299000244,-37.6524159987935,HIGH ST/BUNNINGS ACCESS
4733,144.967663999889,-37.837379998852,ALBERT/LAKESIDE
4734,144.977943000157,-37.8494929990696,QUEENS/LINK
755,145.134358000267,-38.1499129987119,MOOROODUC HWY NR RAIL CROSSING
5658,147.993991000433,-37.8792799993591,PHE/MYER
2445,144.974181000012,-37.8390499988711,QUEENS O'HEAD N ARTHUR GANTRY 02
2446,144.975022000301,-37.841352999546,QUEENS O'HEAD N LEOPOLD GANTRY 03
2447,144.975740999711,-37.843340999191,QUEENS O'HEAD N LOUISE GANTRY 04
2448,144.976720000462,-37.8460249988065,QUEENS O'HEAD N ROY GANTRY 05
2449,144.977401999955,-37.8478839995166,QUEENS O'HEAD N BEATRICE GANTRY 06
2450,144.977704999688,-37.8487669987703,QUEENS O'HEAD S BEATRICE GANTRY 07
2467,144.978276999514,-37.8505119992585,QUEENS O'HEAD N LORNE GANTRY 08
116,145.178256999449,-37.8185089989353,MAROONDAH HWY/FIRE STN
5311,144.337776999592,-38.1530329988535,NOBLE NR CLAREMONT
377,145.243149999563,-37.8976079989366,FERNTREE GULLY/ENT BUNNINGS (KNOX)
157,145.310585000497,-37.7613579994396,MAROONDAH HWY/KIMBERLEY/FLETCHER
2645,144.766158999523,-37.6946169994619,MELTON HWY/OVERTON LEA
6656,146.471994999858,-38.2208819993788,PRINCES HWY/VILLAGE
4494,144.948512000383,-37.8008149987839,ARDEN/CURZON
4495,144.9504239995,-37.8010229992734,ARDEN/ERROL
4496,144.945530999883,-37.8025949990467,QUEENSBERRY/ABBOTSFORD
2149,144.958050000493,-37.6878499990977,SYDNEY / CAMPBELLFIELD SHOPPING CENTRE
597,145.496971999552,-38.0682259987122,PRINCES HWY/ARMY
175,145.232934999733,-37.8731019992994,STUD/KNOX TAFE COLLEGE ENT/RIVERPARK
799,145.232928999471,-37.8823049990948,STUD/HARCREST BLVD
3435,144.899771000182,-37.8146649990233,WHITEHALL/SOMERVILLE
2644,144.829058000406,-37.7752249991148,MCINTYRE/PHOENIX
2658,144.739647000447,-37.7563319994153,WESTERN HWY/CHRISTIES/CAROLINE SPRING
2984,145.004896999619,-37.8483239992166,MALVERN NR WESTBOURNE
3505,144.828756999979,-37.8692929992382,QUEEN NR SARGOOD
2750,144.806067999982,-37.7523829988841,ST ALBANS NR DEBENHAM
2342,145.086336999493,-38.0055879990558,NEPEAN HWY/MCDONALD
510,145.11561999958,-38.0506089993768,STATION/THAMES PROMENADE
3082,144.968781000465,-37.7381489987679,PENTRIDGE NR ACCESS ROAD
290,145.165944999624,-37.9415529986966,PHE/SMITH
3042,144.974348999976,-37.7421689988058,BELL/ALVA
3299,145.002604000135,-37.7847909991661,HEIDELBERG NR THE ESPLANADE
4478,144.939135999904,-37.7859959986934,WESTERN LINK NB ENTRY/MT ALEXANDER
4486,144.935323999972,-37.8046769991167,WESTERN LINK/DYNON ON RAMP NORTH BD
156,145.289862000232,-37.8134439988897,MERRINDALE NR CENTRE
596,145.194849999884,-37.830612998718,MITCHAM/PREMIER/REDLAND
5334,144.326416000493,-38.214959999527,BAANIP BOULEVARD / SOVEREIGN DR
2502,144.919820000289,-37.791071999219,SMITHFIELD/GATEHOUSE/STABLES
554,144.889681999992,-38.3608989994601,BONEO/MCCOMBE
1076,144.950844999459,-37.8221999990926,GEORGIANA/WURUNDJERI
306,145.652958000397,-37.7551639993759,WARBURTON HWY NR HEARSE
5078,144.363256999592,-38.1479779988712,MALOP/YARRA
5079,144.352389000106,-38.1752389995362,CORIO-WAURN POND(SETTLEMENT/BARWON HEADS
5080,144.331938999467,-38.12984199907,CHURCH/MINERVA
5081,144.36280000001,-38.1489819993455,YARRA/LT MALOP
5082,144.362744999614,-38.1478379988143,MALOP NR YARRA
2145,144.947026999968,-37.6169639988774,SYDNEY RD/GRASSLANDS
892,145.234533999955,-37.8003679991689,WARRANDYTE/WONGA
2680,144.741608999658,-37.7295739989851,CAROLINE SPRINGS/COMMERCIAL
3449,145.001231999674,-37.8006509993847,JOHNSTON/PATTERSON
6810,142.22930900015,-38.3813549992816,PHW NR REGENT
603,145.225827000374,-37.957748999455,MONASH FWY/STUD O/B RAMP
1233,144.763641000271,-37.725512999238,TAYLORS NEAR WATERVALE BLVD
4163,144.937711000311,-37.8148239989785,DOCKLANDS DR/PEARL RIVER ROAD
3967,144.939636000155,-37.8140959990593,DOCKLANDS/DOEPEL/WATERFRONT
297,145.172127999707,-37.8183689994942,MAROONDAH HWY/BRAND SMART
2696,144.834748000252,-37.7767929995258,WESTMORELAND BTW BALLARAT & PHOENIX
5330,143.38370800006,-37.4298209989765,WESTERN HWY/LAWRENCE
2641,144.830646999974,-37.7772239987301,WESTERN HWY/HARVESTER
2643,144.830343999621,-37.7846719992327,DEVONSHIRE/HARVESTER
2642,144.828374999702,-37.7791089988805,ANDERSON/FOUNDRY
3636,145.020047999962,-37.9568569993218,BLUFF NR HOLLOWAY
838,145.152765999654,-37.8197309995409,RAILWAY NR BLACKBURN
870,145.122886000351,-38.0754279987785,STATION NR CARRUM RAIL STATION
5260,144.663752000265,-37.8979119993272,CHERRY/RAILWAY
5261,144.761437999671,-37.8659779994923,AVIATION/MAHER
111,145.168460000317,-37.8182669993991,MAROONDAH HWY/METROPOLITAN
5026,144.306297000449,-38.202288999238,CORIO-WAURN PONDS/PIGDONS
5262,144.680242000301,-37.89068099933,DERRIMUT/RAILWAY
2669,144.567140000473,-37.6843809989158,HIGH NR COBURNS
1039,144.964733999632,-37.8047279990959,QUEENSBERRY/CARDIGAN
1038,144.989386999943,-37.8214499988786,PUNT/GATE 6
3727,145.050761999614,-37.7090679995423,PLENTY/GRANGE/SNAKE GULLY
3175,145.297834000524,-38.0717999994379,NARRE WARREN-CRANBOURNE/GLASSCOCKS
2040,145.1269570002,-37.7738209990111,WILLIAMSONS/AQUARENA/NORTH
6079,145.398316000463,-36.3788309991837,WELSFORD/FRYERS
305,145.257577000455,-38.0505249990835,STH GIPPSLAND HWY/LYNBROOK
5272,144.659696000289,-37.9036769994737,SYNNOT BTN WEDGE & BRIDGE
3273,145.029601000201,-37.7362189994305,WOOD NR LAUREL
122,145.312383000254,-37.8023289995249,MT DANDENONG/HAWTHORY
5226,144.344633000391,-38.1314179989799,MIDLAND HWY (CHURCH)/WEDDELL
5092,144.65550200038,-37.9045589993324,PHW/WERRIBEE/WATTON/SYNNOT
5093,144.665904000384,-37.9003659995078,WERRIBEE MAIN RD(PHW)/CHERRY/SYNNOT
5094,144.346531000313,-38.1499399990298,PAKINGTON NR RETREAT
5096,144.347682999603,-38.1437579992138,AUTUMN/PAKINGTON/GORDON
5097,144.348286000076,-38.140782999054,PAKINGTON/ALBERT
5098,144.343394999507,-38.1108169988558,SEPARATION/THOMPSON
5099,144.331789999989,-38.1094199991698,ANAKIE/SEPARATION
5100,144.349926999562,-38.1320979991279,MIDLAND HWY/PAKINGTON/STUBBS
5101,144.349801000293,-38.1115589995345,SEPARATION/DOURO
5102,144.342952000474,-38.13109099908,MIDLAND HWY/CHURCH
5103,144.339325000013,-38.1268699988111,MIDLAND HWY/SHANNON/THOMPSON
5104,144.336741000081,-38.1237679995413,MIDLAND HWY NR STODDART
5106,144.330367000276,-38.1159999989234,MIDLAND HWY/ANAKIE/VINES
5108,144.345497000437,-38.0998559994776,THOMPSON/MORGAN
5110,144.332541000232,-38.1055389988322,ANAKIE NR BARTON
5111,144.355950000493,-38.0951809991216,CORIO-WAURN PONDS/YOORINGA/FORSTER
5195,144.355857000269,-38.1455029987138,FENWICK/GORDON/RAILWAY
5196,144.360424000548,-38.1541439990821,BELLARINE HWY (MCKILLOP)/YARRA
5198,144.365411999944,-38.15556899929,BELLARINE HWY (MCKILLOP)/SWANSTON
5203,144.362313999525,-38.1500369990291,RYRIE/YARRA
5070,144.361691999994,-38.145225999194,BROUGHAM/MOORABOOL
5071,144.370491999765,-38.1569679991507,BELLARINE HWY ( MCKILLOP ) / GARDEN
5072,144.348771999598,-38.0830169995343,THOMPSON/COX
5073,144.358648000401,-38.0741569994602,BACCHUS MARSH/PURNELL
5074,144.355402000216,-38.1527089989499,BELLARINE HWY (MCKILLOP) / GHERINGHAP
3989,144.93293399993,-37.8005879992931,SIMPLOT ACCESS/LLOYD
3618,144.928999999773,-37.643785999353,PASCOE VALE/SHANKLAND/RESERVOIR
2664,144.889289000176,-37.7686479992215,RALEIGH/RANDALL
4162,144.955784000237,-37.8071429990258,PEEL NR VICTORIA
4158,144.970647999999,-37.7354189992682,MURRAY/STOCKADE
2798,144.862708999776,-37.7464209989372,MILLEARA/THE CROSSWAY
5308,144.329066000132,-38.1446099994047,HAMILTON HWY (ABERDEEN)/MINERVA
5310,144.35191599966,-38.1324739987861,MIDLAND HWY/GLENLEITH
4182,145.098615000376,-37.7041329988641,GRIMSHAW NR JESSOP
5905,143.840003999955,-37.5413329991144,SUNRAYSIA (HOWITT)/DOWLING
5603,147.065774999555,-38.1115799990849,PHE/RAYMOND
5606,147.067947000214,-38.1051629989225,PHE/MACARTHUR
5607,147.068166999448,-38.1093539994686,PHE(YORK)/MACALISTER
5608,147.082775000295,-38.104189998782,GUTHRIDGE NR STEAD
5654,147.629482000388,-37.8265949989042,PHE/SERVICE
5205,144.367320000362,-38.1514089993486,SYDNEY/SWANSTON/RYRIE
5206,144.371406000435,-38.1549769993916,ORMOND/GARDEN/MYERS
5207,144.374526000198,-38.1581859990033,BELLARINE HWY (MCKILLOP)/ORMOND
5208,144.402460999681,-38.1736459987761,BELLARINE HWY / COPPARDS
5209,144.384507000275,-38.1686859993966,BELLARINE HWY (ORMOND) / BOUNDARY
5210,144.391442000294,-38.1706299987249,BELLARINE HWY / WILSONS
5212,144.46885799998,-38.1901999989402,BELLARINE HWY/ASH/SIMONS
5213,144.422310999729,-38.167200999126,GEELONG-PORTARLINGTON/POINT HENRY
5215,144.420256000101,-38.1785309994317,BELLARINE HWY/MOOLAP STATION
5216,144.524632000418,-38.2678799994665,HODGSON/THE TERRACE
4786,144.991545999458,-37.7293949991318,GILBERT/REGENT
4787,144.990300999684,-37.7365829992706,GILBERT/MURRAY
4788,144.989918999461,-37.7390279988246,GILBERT/CRAMER
4789,145.013685000044,-37.7343949987124,PLENTY/WOOD
4790,145.011537000384,-37.7388009994461,PLENTY/MURRAY
4791,145.009751999609,-37.7410719995589,PLENTY/GOWER
5259,144.653630000104,-37.9018429988149,WERRIBEE/COTTRELL/PHW
6271,144.279811000132,-36.7636439993656,WILLS/EDWARDS
6620,145.930325999472,-38.1589529986774,BRANDY CREEK/ALBERT
4989,144.783854000112,-37.8356189993169,FITZGERALD/FEDERATION TRAIL
6697,146.151410999792,-38.2081959989184,PRINCES HWY/ASHBY
789,145.265149000497,-37.9287959987309,WELLINGTON/NAPOLEON
3724,145.128560999509,-37.8930679992579,MONASH/FORSTER I/B RAMP (RAMP MTR)
4477,144.945192999782,-37.7895089993615,ELLIOTT/BRENS
473,145.106690999797,-37.8673249988655,HIGH ST RD NR TECK
3610,144.919395999554,-37.6823899990272,PASCOE VALE/TANDERRUM WAY
3358,145.100865000235,-37.7028549988243,THE CIRCUIT/LORIMER/G'BOROURGH SHOP
153,145.180597999561,-37.8182039993752,MAROONDAH/CIVIC CENTRE
6204,144.294246000338,-36.7522849988245,CHARLESTON/NOLAN
3434,144.89864200007,-37.7996619991995,BARKLY NR ALBERT
3272,145.020818000239,-37.7557979991298,STATION NR COLLINS
5802,143.841104000419,-37.5919649993345,MIDLAND HWY (ALBERT ST) NR VICKERS
3942,145.107784999951,-37.8548039993623,HIGHBURY NR MONTPELLIER
3107,145.042941999717,-37.9488679991299,HIGHETT NR RAILWAY DD1388
4635,145.060159999716,-37.941896999045,CHESTERVILLE/COCHRANES
2958,145.104942999709,-37.9036099989873,HUNTINGDALE/BURLINGTON
2959,145.095257999691,-37.8994749990281,ATHERTON NR REGENT (OAK FIRE STN)
3744,145.028583999629,-37.6874979995304,METROPOLITAN RING ROAD/DALTON
4981,144.887474999867,-37.848900999225,MELBOURNE NR BUNBURY (FIRE STN)
3797,144.970548999804,-37.7791529995236,LYGON NR PARK
3881,144.995353000018,-37.7151839995372,EDWARDES NR SPRATLING
4835,144.834077999866,-37.7870209987613,WITHERS/DICKSON
3773,145.067213000364,-37.6381879991047,THE LAKES NR THE PROMENADE
6724,141.630239999742,-38.1312359990045,PHW NR HUNTER
570,145.252854999913,-38.109886999309,CRANBOURNE-FRANKSTON/HALL
3177,145.335344000119,-38.0745109990011,BERWICK-CRANBOURNE/GLASSCOCKS/GRICES
3097,145.192488999925,-37.9783259991019,RAILWAY NR CYRIL
566,145.3013190002,-38.0201169986888,PATRICK NORTHEAST NR MAGID
2756,144.849799000356,-37.7245539987974,CALDER FWY/KEILOR PARK
878,145.19081600024,-37.9345689991283,MONASH FWY/JACKSONS (IB)
701,145.187737999579,-38.1013499986854,HALL/LYREBIRD
5067,144.358538999782,-38.0761509986787,GEELONG-BACCHUS MARSH/CORIO VILLAGE SC
5022,144.341066999979,-38.1819299992115,CORIO-WAURN PONDS (SETTLEMENT) NR MERNDA
3969,144.952343000207,-37.6890039994975,CAMP/NORTHCORP
5229,144.366581999588,-38.1823139987707,BREAKWATER/TUCKER/CURRIER
542,145.134204000451,-38.0336889992339,WELLS/ENTERPRIZE
555,144.921466999842,-38.351214999176,NEPEAN/LONSDALE
879,144.876275000477,-38.3636319989494,POINT NEPEAN NR CAPEL
6645,146.284695000201,-38.1871359986801,MOE-GLENGARRY(JOHN FIELD)/SHANAHAN
6647,146.294665000143,-38.1799909988483,MOE-GLENGARRY(JOHN FIELD)/OLD SALE
6657,146.391267000196,-38.2357069990854,MORWELL-THORPDALE/COMMERCIAL
6658,146.398352000154,-38.2376469991019,COMMERCIAL NR TARWIN
6660,146.404747999709,-38.238462999338,MORWELL-TRARALGON/MCDONALD
6662,146.420723999698,-38.3079419989977,MONASH WAY NR SWITCHBACK
6672,146.426140999519,-38.2464349991783,PHE ON RAMP (WEST BOUND)/MONASH WAY
6277,144.2803459999,-36.7587339988938,WILLIAMSON/HARGRAVES (NORTH SIDE)
6278,144.281689000116,-36.7617019990293,LYTTLETON NR MITCHELL
3572,144.965999999944,-37.7379999990487,O'HEA STREET NR ROSS STREET
1756,145.221726000014,-37.7706129988111,Falconer Road / Yeoman Crt / CFA station
6279,144.305215999942,-36.7732469987778,STRATHFIELDSAYE/EDWARDS/CONDON
6280,144.283472999484,-36.7501729988704,BARNARD/LUCAN/ARNOLD
6281,144.281189000126,-36.7607089995455,QUEEN NR KILLIANS WALK
2498,144.880190999469,-37.8053549990036,PHW NR WALES
6092,145.403333999935,-36.3816209991576,MIDLAND HWY/CORIO
6093,145.408078999959,-36.3822839991142,MIDLAND HWY/ST GEORGES
1305,145.150152000112,-38.1973549988706,FRANKSTON-FLINDERS/PENLINK
6094,145.412873999886,-36.3829579987017,MIDLAND HWY/ARCHER
6095,145.407917000116,-36.3749749990089,KNIGHT NR HAROLD
6096,145.41521899962,-36.3714809990767,HAWDON NR REA (SHEPP HS)
6097,145.397890999737,-36.3808979989108,MIDLAND HWY/WELSFORD
6098,145.405818000259,-36.3819439993694,MIDLAND HWY(HIGH)/NORTH
6100,145.651342999666,-35.9166979993013,BROADWAY NR O'DWYER
6120,146.310400000179,-36.3606089995404,WANGARATTA (TONE)/SISELY
6124,146.326689000442,-36.3553639988425,WANGARATTA (MURPHY)/REID
6147,146.873684000214,-36.1181469989398,MELBOURNE RD NR CROYLAND
5903,143.822260000457,-37.5390609994028,HOWITT/LEARMONTH/GILLIES
5911,143.856690000437,-37.5596379986903,MAIR/ARMSTRONG
5912,143.858154999833,-37.5598059986825,MAIR/LYDIARD
5913,143.86423399944,-37.5604809990109,MAIR/PEEL
5915,143.863412000436,-37.5648889987268,PEEL/EASTWOOD
5935,144.528075000545,-37.3561609986965,HIGH NR ANSLOW
5937,144.453240000005,-37.2490829989829,KYNETON MAIN/KYNETON - TRENTHAM
5950,143.854404000324,-37.5638289990231,MIDLAND HWY(DOVETON)/DANA
5951,143.854019000206,-37.5659039995111,MIDLAND HWY(DOVETON)/EYRE
5952,143.843366000385,-37.5773969991654,MIDLAND HWY (SKIPTON ST)NR BELL
5958,143.842061000024,-37.5796119994391,MIDLAND HWY (SKIPTON ST)/LEITH
5904,143.842540999811,-37.5416209994447,SUNRAYSIA (HOWITT)/BURNBANK
5247,144.761690999612,-37.8672939995348,AVIATION NR RAILWAY (TRIHOLM)
4476,144.94849000023,-37.8184719992902,BATMANS HILL/BOURKE/TELSTRA DOME STH ENT
3191,145.119651999489,-37.9254849992651,CLAYTON/DUNSTAN
404,145.164017000172,-37.8789339987029,KINGSWAY NR O'SULLIVAN
4841,144.97062200001,-37.8540559990907,CANTERBURY NR FRASER
4576,144.971472999961,-37.8140469990585,COLLINS/EXHIBITION
4577,144.969001999758,-37.814769998906,RUSSELL/COLLINS
4579,144.965190000135,-37.8158889988048,COLLINS NR ELIZABETH
4580,144.964067999808,-37.8162179993324,ELIZABETH/COLLINS
4581,144.961581999486,-37.8169319988386,QUEEN/COLLINS
4582,144.960667000424,-37.8171959991142,COLLINS NR MARKET
4583,144.959110999462,-37.817642999172,WILLIAM/COLLINS
4584,144.956628999845,-37.8183569988552,KING/COLLINS
4585,144.954148999457,-37.8190699990172,SPENCER/COLLINS
4586,144.971014000295,-37.8130579987519,EXHIBITION/LITTLE COLLINS
4589,144.963610999738,-37.8152269989847,ELIZABETH/LITTLE COLLINS
4590,144.961131000247,-37.815943998805,QUEEN/LITTLE COLLINS
4591,144.958657000383,-37.816656999242,WILLIAM/LITTLE COLLINS
4592,144.956177000029,-37.817369999447,KING/LITTLE COLLINS
3918,145.118354000467,-37.7967419994137,EASTERN FWY/ELGAR
3919,145.126618999534,-37.7966409994015,EASTERN FWY/TRAM
727,145.22177299947,-38.0153829989906,GREENS/LANYON
754,145.225847999772,-38.0158729989966,GREENS/KITCHEN
6676,147.080002000152,-37.9667439994828,PHE NR HOBSON
6256,144.246673000166,-36.7853549987856,CALDER HWY/ALDER ST
763,145.190701999821,-38.2901229992966,MARINE/BARCLAY
4979,144.574755999957,-37.7045969991266,EXFORD/STAUGHTON
1343,144.688793999535,-37.8451949990725,DERRIMUT RD BTW INVERELL AND RIPPLESIDE
4792,144.995584999584,-37.7371329987526,MURRAY NR JESSIE
4793,145.018381999471,-37.7395689992349,MURRAY NR HIGHVIEW
4794,145.03085399998,-37.7410059987097,MURRAY/CHIFLEY
7006,145.215350999925,-37.8105819994388,LOUGHNAN/CONSTRUCTION ACCESS
5221,144.338307000398,-38.130660999268,SHANNON/CHURCH
5222,144.336152999495,-38.1416539994552,SHANNON/AUTUMN
3622,145.031159000525,-37.7946829991958,PRINCESS/DUKE
5225,144.3755909995,-38.1795849992785,FELLMONGERS NR HITCHCOCK
3509,144.918446000254,-37.751171999548,NAPIER NR BREWSTER
2630,144.789324000242,-37.7990419986853,WRR/FITZGERALD
2631,144.809166999973,-37.8154279989278,WRR/BOUNDARY
4180,145.108827999716,-37.7052559987428,THE CIRCUIT/VALLEY CENTRAL/HAILES E
3928,145.121262000105,-37.831823999443,STATION NR HILL
3498,144.966095999872,-37.7970089990491,ELGIN/CARDIGAN
4888,144.967311999551,-37.8236349988107,STURT/SOUTHBANK
4890,144.963749999912,-37.8245789992522,POWER/KAVANAGH
4891,144.958514000187,-37.8285439986995,CLARENDON/BALLANTYNE
4892,144.959547999828,-37.8307869990038,CLARENDON/YORK
4893,144.962024999923,-37.8300649986801,MORAY/YORK
4894,144.961512000473,-37.8289559989221,MARKET/MORAY
4895,144.961391999785,-37.820981999171,QUEENS BRIDGE/CROWN PORTE COCHERE EXIT
4897,144.954593999509,-37.8322119995221,YORK/FERRARS
4898,144.953157999544,-37.8351419989165,DORCAS/MONTAGUE
4899,144.955623000209,-37.834429999503,DORCAS/FERRARS
4166,145.062929999943,-37.692158999042,PLENTY/GREENHILLS
4836,144.972863000022,-37.8624429994658,BEACONSFIELD/JACKA
4837,144.995466999709,-37.8690199990618,CARLISLE/WESTBURY
4838,144.976876999519,-37.8753409995581,MARINE/DICKENS/MARINA ENT
4839,144.982175000032,-37.8821729995112,GLEN HUNTLY NR BROADWAY
4840,144.980895999747,-37.8633849994218,GREY NR ROBE
6272,144.281516999536,-36.7623349993665,MITCHELL/WILLS/MYERS
2663,144.941840000078,-37.8391309995429,BAY NR LIARDET
2834,144.930280999848,-37.5977599994488,CRAIGIEBURN/BRIDGEWATER
3249,144.72489400009,-37.5807419990071,GAP/HORNE (WEST SIDE HORNE)
2569,145.036116000378,-37.8969289988706,BOORAN NR MARARA
6637,146.254384000473,-38.1819219994035,WIRRAWAY NR VALE
6638,146.26159499999,-38.1772259993505,MOE-GLENGARRY(LLOYD) NR FOWLER
6639,146.262210000419,-38.1762819990504,GEORGE NR MOORE
6289,144.272996000027,-36.765314999241,MYRTLE/HARGREAVES
2788,145.002284000086,-37.6896679989632,EDGARS/WOLSELEY (COMALCO ACCESS)
7081,145.01475999945,-37.8298259991788,MONASH/LOYOLA ON RAMP/HAUL
3043,145.081377999923,-38.0048179991046,BEACH NR BAY & HIGH
1095,144.891988999719,-37.8555719994483,MELBOURNE NR HOSKING
2451,144.984810999824,-37.7990149991995,JOHNSTON O/H LANE W BEDFORD GANTRY 01
2452,144.986296000393,-37.7991699994441,JOHNSTON O/H LANE W BUDD GANTRY 02
2453,144.986824999684,-37.7992239994594,JOHNSTON O/H LANE E BUDD GANTRY 03
2454,144.987603999788,-37.7993039993449,JOHNSTON O/H LANE E WELLINGTON 04
2455,144.989276000502,-37.7994749991108,JOHNSTON O/H LANE E GOLD GANTRY 05
3238,145.015493999758,-37.651076999558,COOPER/NORTHERN HOSPITAL ENT
6274,144.286174000211,-36.7693039991315,MITCHELL/MILLER/PYKE
6071,145.139641999527,-37.0268149994459,GOULBURN VLY HWY NR MADELINE
6072,145.143080000386,-37.0288249991867,GOULBURN VLY HWY NR GRANT
7538,144.845327000444,-37.848462999236,MILLERS BTW KOROROIT CK & ROSS
6076,145.400331999443,-36.3761649988253,GVH (WYNDHAM) NR NIXON
6077,145.400164000419,-36.3769719986978,GVH (WYNDHAM) / NIXON
6082,145.399307999666,-36.3810869993843,GVH (WYNDHAM) / MIDLAND(HIGH)
6083,145.399728999629,-36.3790649993057,GVH (WYNDHAM) / FRYERS
6085,145.400771000364,-36.3740549988901,GVH (WYNDHAM) / KNIGHT
6086,145.402307000219,-36.366689998945,GVH (WYNDHAM) / BALACLAVA
6087,145.399535000399,-36.3800119994516,GVH (WYNDHAM) NR FRASER
6088,145.398462000513,-36.3851909987996,GVH (WYNDHAM) / SOBRAON
6400,142.204917999629,-36.7166379992572,WESTERN HWY/WIMMERA HWY
2632,144.778962999791,-37.7708409995224,WESTERN NR GLENCAIRN (FIRE STN)
6091,145.400764000085,-36.3812779987001,MIDLAND HWY/MAUDE
5263,144.782368999644,-37.8131329989932,BOUNDARY/WILLIAM ANGLISS/MARWEN
6257,144.266508999938,-36.7671209988153,CALDER HWY/THISTLE
5112,144.359186000133,-38.1444999990529,BROUGHAM/GHERINGHAP
5290,144.760291000104,-37.8112619993042,BOUNDARY/LOT E ACCESS
2684,144.858237999745,-37.7040919992319,SOUTH CENTRE/ANNANDALE/BELLATERRA
5199,144.309037000524,-38.3390959995239,GREAT OCEAN RD / HOYLAKE
5830,143.85464699995,-37.5625119992959,MIDLAND HWY NR STURT
291,145.248172999561,-38.0259779994669,STH GIPPS'D FWY/POUND
155,145.316421000263,-37.7572039989701,EDWARD/VIEWPOINT
2749,144.880254000278,-37.7083229993452,SHARPS/SCHIAVELLO ENT
2179,144.942488000399,-37.5919139991976,SYDNEY RD/KINGSWOOD
3968,144.937888000378,-37.7347399995476,CUMBERLAND/O'HEA
1341,145.236174999456,-37.8461519994157,THAXTED NR HADLOW
1510,145.11359200024,-37.6027739989821,BRIDGE INN/BASSETTS
4653,145.025107999955,-37.7790089991729,GRANGE/WINGROVE
3116,144.978196000425,-37.7799239993324,NICHOLSON NR PARK
3979,145.059148999901,-37.831644998744,RIVERSDALE/FAIRHOLM
5239,144.678828999505,-37.8771929986867,HEATHS/WERRIBEE PLAZA/GLENDALE CRT
3916,145.109934000516,-37.8443579989021,ELGAR/UGANDA
5959,143.834207000552,-37.5861119992405,GLENELG HWY/ALFRED
2652,144.775916000066,-37.8125889991364,BOUNDARY RD / EAST OF MT DERRIMUT RD
5200,144.361614000146,-38.1638119992985,FYANS/SWANSTON
5227,144.353957999774,-38.1808009986627,BARWON HEADS/BREAKWATER
6678,145.516692000078,-38.4228129987974,BASS HWY/DONMIX SANDS/INCITEC PIVOT ENTR
6265,144.272129000202,-36.7620689993201,MCIVOR HWY NR VINE
4414,144.968069999565,-37.7941449988107,LYGON NR LYTTON
3697,145.077350999778,-37.9498409992164,WARRIGAL/KEYS/CORPORATE
544,145.148118000487,-37.8738099991824,BLACKBURN NR MATTHEW
3245,145.033944000549,-37.6938979992188,SETTLEMENT/BRAND
7047,144.936282999462,-37.8376889990346,SWALLOW/LIGHT RAIL CROSSING
6675,146.438686999551,-38.2333789993564,MORWELL-TRARALGON/ALEXANDER TRAMWAY
6680,145.946639000143,-38.4772069992875,STH GIPPS'D HWY (BLAIR) NR CHURCH
6688,146.542188999967,-38.1945219988183,PHE/GREY          TRARALGON
6690,146.537984999832,-38.196244998967,SEYMOUR/FRANKLIN
6691,146.524109000165,-38.2018319995017,PHE NR LAFAYETTE
6693,146.551173999773,-38.2497529986935,TRARALGON CREEK/BARTONS
6695,146.552412999665,-38.1923189990857,PHE/LIDDIARD     TRARALGON
6696,146.535185999621,-38.2006409989122,HYLAND NR DUNBAR
6811,142.485219999739,-38.3815249988006,LIEBIG NR LAVA
6812,142.488010000047,-38.3818749994703,PHW/BANYAN
6813,142.479896000011,-38.3763819987869,PHW (RAGLAN ) / KING / HENNA
6285,144.268087000014,-36.7583919990583,CALDER(DON)/BARNARD
6287,144.317429000152,-36.7595709990178,MCIVOR/POWELLS/RESERVOIR
5068,144.344738999743,-38.1824329992829,CORIO-WAURN(SETTLEMENT/TORQUAY/SURFCOAST
5069,144.350447999773,-38.1807499991616,CORIO-WAURN PONDS (SETTLEMENT/BREAKWATER
5007,144.358673999792,-38.0841689992628,CORIO-WAURN/BACCHUS MARSH/COX/ST GEORGES
5008,144.357171999445,-38.0873009987096,CORIO-WAURN PONDS NR BELLBIRD
5009,144.356365999583,-38.0914349990327,CORIO-WAURN PONDS / SPARKS
5011,144.355019999719,-38.0987899987265,CORIO-WAURN POND/NTH SHORE/THE BOULEVARD
5012,144.408713000185,-38.0237439995389,STATION LAKE NR WAVERLEY
5013,144.354598999567,-38.1149809988249,CORIO-WAURN PONDS / MACKEY
5014,144.352801000027,-38.123160999419,CORIO-WAURN PONDS / VICTORIA
5015,144.351880000462,-38.1276119991148,CORIO-WAURN PONDS / BELL
5016,144.35091600039,-38.1334259989052,CORIO-WAURN PONDS RD / MIDLAND
5017,144.353338999835,-38.1444349987878,CORIO-WAURN PONDS ( LATROBE ) / GORDON
5018,144.352753999863,-38.1474369993916,CORIO-WAURN PONDS(LATROBE/RYRIE/ABERDEEN
5020,144.351972999625,-38.1517249995142,CORIO-WAURN PONDS ( LATROBE )/ MCKILLOP
5021,144.351252000514,-38.1546199992459,CORIO-WAURN PONDS(LATROBE)/KILGOUR/NOBLE
5023,144.350300000487,-38.1605259993918,CORIO-WAURN PONDS(LATROBE/FYANS/W. FYANS
5024,144.353117999471,-38.0835269986782,COX NR NEVADA
5025,144.346458999873,-38.0950749986781,THOMPSON/BOULEVARD
5028,144.347300000299,-38.0906939993076,THOMPSON NR SPARKS
5030,143.598428999643,-38.3375719991655,PHW (MURRAY) NR WOOD
5032,143.587055999444,-38.3397099987738,PHW (MURRAY)/GELLIBRAND
5033,143.584397999601,-38.3397879990639,PHW (MURRAY)/CORANGAMITE
5034,143.56708800026,-38.3366189989512,PHW (MURRAY) NR MCLENNAN
2044,145.064943000374,-37.8676829989306,DUNLOP NEAR FRANCIS
6445,142.157426999977,-34.1895859988754,STURT(DEAKIN)/ELEVENTH
6447,142.153868000224,-34.1925259994586,STURT(DEAKIN)/THIRTEENTH
6449,142.146983000446,-34.1982299992334,STURT(DEAKIN)/FOURTEENTH
6450,142.141365999865,-34.2109909993863,CALDER/SAN MATEO
6615,145.922886999584,-38.1598009992448,DROUIN-WARRAGUL NR LATROBE
6630,146.155185999442,-38.2075519992874,PHE NR CONTINGENT
502,145.339991000315,-38.0513809994336,CLYDE/CENTRE
5940,142.013460999426,-37.7337439992996,MT BAINBRIDGE NR STEWART
2785,145.024678000353,-37.6503469988399,HIGH NR COULSTOCK
2633,144.791679000256,-37.7816849995554,TILBURN/FITZGERALD/FORREST
4479,144.943152999794,-37.7993019987269,MACAULAY NR HAINES
2058,144.79321300051,-37.7434769986972,MAIN ROAD WEST NR PENNELL
5031,144.319321000098,-38.1974969994052,PIONEER/WAURNVALE S C WEST ENT
5036,144.357417000292,-38.1455849988475,MERCER/RAILWAY
4211,144.908501999509,-37.7708819990058,MARIBYRNONG BTN LENNOX & BOWEN
4425,144.962504999827,-37.8002689988464,GRATTAN/BOUVERIE
2657,144.58189199954,-37.6832989994538,HIGH NR PALMERSTON & ALEXANDRA
980,145.236576000005,-37.793952999513,OBAN/NTH RINGWOOD SHOPPING CENTRE
2939,144.928459000352,-37.7880479992013,RACECOURSE/NEWMARKET
5113,144.359920999544,-38.1427579987596,WESTERN BEACH/GHERINGHAP
6815,142.481629999463,-38.3781339992723,PHW (RAGLAN PDE) / FAIRY/JAMIESON
6816,142.479627000445,-38.3932679987519,PERTOBE NR PARK ENT
6817,142.483421000573,-38.379824998951,PHW(RAGLAN)/KEPLER
6818,142.485709999812,-38.380847998667,PHW(RAGLAN)/LIEBIG
6819,142.459616999756,-38.3643939986699,PHW(RAGLAN PDE)/CARAMUT/WALSH
6820,142.519225000182,-38.3834549987757,PHW/K-MART ENTRANCE
6821,142.512350000403,-38.3846639988489,PHW/SIMPSON/GLENROWE
6824,141.603725000453,-38.346322999253,PERCY/HENTY
6825,141.605423000401,-38.3598549987712,CAPE NELSON/MUST
4593,144.973045999461,-37.8113599995115,SPRING/BOURKE
4594,144.970564000365,-37.8120869987659,BOURKE/EXHIBITION
4595,144.968102999559,-37.8128079991192,RUSSELL/BOURKE
4597,144.963158999614,-37.8142479993947,ELIZABETH/BOURKE
4598,144.961710000514,-37.8146679994157,BOURKE NR HARDWARE
4599,144.960684000253,-37.8149649990048,QUEEN/BOURKE
4601,144.955726999576,-37.8163849988895,KING/BOURKE
4603,144.9701079999,-37.811103999215,EXHIBITION/LITTLE BOURKE
4604,144.967651999695,-37.8118229988295,RUSSELL/LITTLE BOURKE
4606,144.962708000417,-37.81326899891,ELIZABETH/LITTLE BOURKE
4540,144.977405999481,-37.8413429987607,ST KILDA/LEOPOLD/ARMADALE
4541,144.978686000491,-37.8448519988759,ST KILDA/COMMERCIAL
4542,144.979731999916,-37.8477209990539,ST KILDA/MOUBRAY
4543,144.980643000114,-37.8502189991918,ST KILDA/HIGH/LORNE
4544,144.982031000115,-37.8452909988339,COMMERCIAL NR ALFRED HOSP
4545,144.980449000111,-37.8375519986877,TOORAK NR MILLSWYN
4547,144.977481000187,-37.8334899995499,DOMAIN NR DOMAIN
4548,144.98252399949,-37.8341459995529,DOMAIN/PARK/BIRDWOOD
4549,144.973713000031,-37.8216289987091,ALEXANDRA/LINLITHGOW
4552,144.984853000114,-37.8283469986696,ALEXANDRA/ANDERSON
4555,144.983882999631,-37.8332619991524,ANDERSON NR ACLAND
4560,144.972382000207,-37.8160099993004,EXHIBITION/FLINDERS
4563,144.964969999777,-37.8181709993944,ELIZABETH/FLINDERS
4564,144.962478999776,-37.8188959986769,QUEEN/FLINDERS
4565,144.961087999483,-37.8193009987202,FLINDERS/MARKET
4566,144.96001699947,-37.8196139990753,WILLIAM/FLINDERS
4568,144.971923999642,-37.8150219991308,EXHIBITION/FLINDERS LANE
4569,144.969454000543,-37.8157569987892,RUSSELL/FLINDERS LANE
4570,144.966989000336,-37.8164849993303,SWANSTON/FLINDERS LANE
4571,144.9645209998,-37.8171979986979,ELIZABETH/FLINDERS LANE
4573,144.959559999534,-37.8186199987774,WILLIAM/FLINDERS LANE
4574,144.957106000375,-37.8193899994567,KING/FLINDERS LANE
4503,144.950730999635,-37.805291999516,VICTORIA/LEVESON
4504,144.952202999998,-37.8054579992059,VICTORIA/CHETWYND
4505,144.953686000485,-37.8056259988217,VICTORIA/WILLIAM/HOWARD
4506,144.955987999866,-37.8058789987282,VICTORIA/PEEL
4507,144.952576000325,-37.8033809993505,QUEENSBERRY/CHETWYND
4508,144.957835000048,-37.8060809993166,VICTORIA NR O'CONNELL
4509,144.958009000362,-37.8088669987695,FRANKLIN NR QUEEN
4510,144.959883999929,-37.8071129991836,ELIZABETH/THERRY
4511,144.960376000025,-37.808181999081,ELIZABETH/FRANKLIN
806,145.286579000157,-37.8455419990344,DORSET/LANDSCAPE
3084,144.996907999777,-37.747031999228,ST GEORGES NR SHOWER
6275,144.290430999725,-36.7735249987356,SOMERVILLE/ELLIS
307,145.058900999584,-38.2185939991172,NEPEAN HWY/BUNNINGS/MORNINGTON SC
2353,145.102404000062,-38.0005779994037,WHITE/TREEBY
4655,145.067850000228,-37.9222809988109,CENTRE/BRADY
4208,144.915491000423,-37.7758869994897,UNION NR BLOOMFIELD
2884,144.890028000229,-37.7300959994979,MATTHEWS NR HART
2890,144.88959600024,-37.732747999112,MATTHEWS NR FULLARTON
4436,144.932041000245,-37.8090729990233,FOOTSCRAY/WESTERN LINK NB ON & OFF RAMP
3677,145.09131700014,-37.8771629994837,WARRIGAL/HARVEY NORMAN ENT. NO 1
2660,144.848127000546,-37.8090119995307,SOMERVILLE/MCDONALD
299,144.902471999609,-38.3560949993122,POINT NEPEAN/NINTH
3543,144.933249000431,-37.8403139994738,BEACH NR CANBERRA
713,145.149013999973,-37.7118969991392,MAIN/DIAMOND/CECIL
6319,144.749723999904,-36.1285079988803,HARE NR ANSTRUTHER
2164,144.940209000165,-37.5988509991687,CRAIGIEBURN NR BENSTON
1741,144.719063000233,-37.8832949995371,Dunnings Road / Hacketts Road
5274,144.702181000046,-37.8744129993868,MORRIS/BELLBRIDGE
5275,144.703809000313,-37.8648679988657,MORRIS/HOGANS
764,145.287503000242,-37.8886179991109,BURWOOD/GLENFERN
6211,144.951372999989,-37.3003109994506,NORTHERN HWY/RUTLEDGE
4159,144.966727999882,-37.821430999422,CITY NR FANNING
397,145.300890999791,-38.0290659992105,SHRIVES/CENTRE
761,145.191518999894,-38.1168589995305,BALLARTO/MCCLELLAND
2147,144.953357000555,-37.6553489991439,SYDNEY RD/AXIOM BUSINESS PARK
511,145.134752000312,-38.148977998857,MOOROODUC HWY/GERTRUDE
5139,144.348806999551,-38.1380949987702,PAKINGTON/WARATAH/WELLINGTON
512,145.274905999567,-37.9982669990229,MONASH FWY/BELGRAVE-HALLAM
824,145.247016999531,-37.9119029990574,KELLETTS/TAYLORS
3517,144.921403000291,-37.7607669991449,MT ALEXANDER (E) NR CRAWFORD
3522,144.917782000193,-37.7550119991412,MT ALEXANDER NR NAPIER
3523,144.917309000289,-37.7549759995359,MT ALEXANDER NR FLETCHER
589,145.148635999647,-37.8100219993944,SPRINGFIELD NR PRIMROSE ST
871,145.191033999475,-37.8369909987174,CANTERBURY/TERRARA
3073,145.048829999768,-37.7361229993092,WATERDALE NR RAMU
5230,144.318500999896,-38.3222559995232,SURF COAST HWY/GROSSMANS/DARIAN
3716,145.063899000314,-37.9827349994373,FLORENCE NR OLD BAKERY
3717,145.075089000251,-37.9923299994415,COMO PDE WEST NR BIRDWOOD
3274,145.02830800035,-37.7360949989489,WOOD/LAUREL/NORTHLAND ACCESS
1067,144.945673999967,-37.8165089988996,HARBOUR ESP NR LA TROBE
309,145.118631000438,-38.0191989993669,WELLS/PALM/NARELLE
3963,145.130036999679,-37.8949189990833,FORSTER/RICKETTS/HARDNER
310,145.278564999789,-38.0870949990069,STH GIPPS'D HWY/LESDON
311,145.279045999595,-38.0825789991667,THOMPSONS/WOODBINE
2797,145.070410000033,-37.673607998888,PLENTY NR MAYFIELD
106,145.364208999983,-37.7800069992436,SWANSEA/BIRMINGHAM
2111,145.146777000246,-37.7252939994778,MAIN NR DALTON
3408,144.987963999695,-37.8245169988244,OLYMPIC BLVD/MELBOURNE PARK ENT D
2848,145.041564000258,-37.84123899949,AUBURN NR BURGESS
2295,144.95569900051,-37.8407019993927,BRIDPORT NR MONTAGUE
760,145.176877000488,-38.2237989987056,ERAMOSA NR FRANKSTON-FLINDERS
105,145.202051000235,-37.8161099987675,MAROONDAH/COCHRANE/COOK
4488,144.945248999794,-37.8120929987216,WURUNDJERI/DUDLEY
2795,144.86472999957,-37.768634999089,MILITARY NR RIVERSIDE
2180,144.931418000385,-37.6408659990911,SOMERTON/RESERVOIR/ROXBURGH PARK S/C
300,145.475211000239,-38.0711719987862,PHE/MCGREGOR/THE AVENUE
766,145.280187000312,-37.837994998667,MOUNTAIN HWY/JERSEY
3252,144.731710999551,-37.5769929988278,MACEDON NR EVANS
765,145.230324999721,-37.8991759994087,FERNTREE GULLY/LYNTON/JANINE
3826,145.061275000469,-37.8073089989818,BURKE NR GORDON
5029,144.320017000172,-38.1981389990966,PIONEER/GEELONG BASEBALL CENTRE
3416,144.966717999699,-37.8256169994071,STURT NR GRANT
6080,145.424353999947,-36.3861759990312,MIDLAND HWY/FLORENCE
505,145.265042000497,-38.1108999990336,CRANBOURNE-FRANKSTON/MONAHANS/CHERRYHILL
3904,144.804426999955,-37.8466419995416,KOROROIT CREEK/DOW CHEMICAL/PRIXCAR
2662,144.576442999445,-37.6956749995076,STATION/RICHARD
2793,144.869485999829,-37.7300029987444,KEILOR/WOORITE
3283,144.904155000015,-37.8073579989219,Moreland St / Parker St
3284,144.903220000044,-37.8082079991694,Moreland St / Whitehall St
5265,144.681371000353,-37.8866099988157,DERRIMUT/WILLMOTT
839,145.150173999935,-37.8198389991296,RAILWAY NR STATION
3376,144.99276000031,-37.8011939994177,HODDLE NR PETER
3375,144.992768000301,-37.8011449994197,HODDLE NR STUDLEY S/B
5801,144.439010000492,-37.6642789988361,WESTERN FWY/BACCHUS MARSH-GISBORNE
5941,142.024528999879,-37.7430879994277,GRAY NR BROWN
3882,145.005346999593,-37.7162469992948,EDWARDES NR OLIVE
3568,145.007238000324,-37.9123669994306,HAMPTON/DURRANT/CLUDEN
3099,145.024221000526,-37.9355499992873,BLUFF/LUDSTONE
515,145.20954800039,-38.0438469992877,FRANKSTON-DANDENONG NR WILLOW
3213,145.005757000087,-37.7180329991346,SPRING BTW VIOLA & CLEELAND
3117,144.987994999525,-37.7581869990923,NORMANBY/LEINSTER
2598,144.761639000404,-37.694061998699,MELTON HWY NR ARRAN
2597,144.756600000088,-37.6934419992873,MELTON HWY/CALDER PARK
2030,145.185491000349,-37.819919999417,Rooks btw Queens & Station
1766,145.266286999587,-37.8407939990798,Mountain Highway / Station Street
1037,144.960300000179,-37.8042269987069,QUEENSBERRY/LEICESTER
3419,145.037100000199,-37.9109199989974,MCKINNON NR GLEN ORME
6641,146.277089999612,-38.1832419989649,MOE-GLENGARRY/OLLERTON
4487,144.937332000381,-37.8053059987159,WESTERN LINK/DYNON OFF RAMP SOUTH BD
388,145.265415000159,-37.8599049991835,BORONIA/CFA FIRE STN
5115,144.348056000081,-38.0867499990069,THOMPSON/DONNYBROOK
4437,144.95055600014,-37.817885999159,WURUNDJERI/BOURKE
506,145.299123999465,-38.0652779989984,NARRE WARREN-CRANB/ORMOND/LITTLECROFT
1066,144.945005999683,-37.8149929989975,HARBOUR ESP/LATROBE
1065,144.9500749995,-37.8171109995003,WURUNDJERI/TELSTRA DOME SE ENT
2796,145.039177000409,-37.6944369992468,SETTLEMENT/NORTHGATE
5836,143.858396999542,-37.5584799989084,LYDIARD/RAIL CROSSING
3418,144.961114999709,-37.8328519989141,DORCAS NR ST LUKE
6301,144.216589999903,-37.0668029993743,MIDLAND HWY(BARKER)/PYRENEES HWY(FOREST)
6310,143.559896000378,-35.3399029991184,CAMPBELL NR MCCRAE
5217,144.389451999475,-38.1811459988598,TOWNSEND/WILSONS
5220,144.329710999501,-38.1295549989721,CHURCH NR BAYVIEW
3247,144.727679000423,-37.5820099994228,STATION/EVANS
5241,144.735295000505,-37.8831799995329,MAIN/MURNONG
6631,146.067669000148,-38.2039539991091,PHE/SHADY CREEK/RAILWAY/ROLLO (YARRAGON)
4735,144.976812999601,-37.8494379987006,LAKESIDE/LINK
4736,145.021775999755,-37.6547149988193,HIGH/EPPING PLAZA SHOPPING ACCESS 1
4725,144.926139000218,-37.6896139993203,WIDFORD NR OLSEN
4726,144.956233999841,-37.8236009993653,CLARENDON NR MELBOURNE EXHIBITION CENTRE
4711,144.965160999648,-37.7934129991942,SWANSTON/CEMETERY EAST/COLLEGE
4652,145.022261999792,-37.7656829992562,DAREBIN NR ARTHUR
4651,144.915518000125,-37.6911339988515,PASCOE VALE/SUNSET
3715,145.103991000105,-38.0071799989254,BOUNDARY/GOVERNOR (ROUNDABOUT)
5936,144.527228999943,-37.3611759991805,MACEDON-WOODEND/ASHBOURNE
160,145.295660999915,-37.8829429988583,STATION/ALPINE
364,145.164041000115,-37.8756589990033,SNEDDEN/THE GLEN CAR PARK
6090,145.395288999467,-36.4007259991701,GVH (WYNDHAM) NR GUTHRIE
815,145.315305999922,-37.8028229992029,MT DANDENONG/DURHAM/LIVERPOOL
154,145.614129000196,-37.7815839994232,WARBURTON HWY/YARRA JUNCTION-NOOJEE
5257,144.680480999552,-37.8938369991737,WERRIBEE MAIN RD(PHW)/DERRIMUT
5828,143.816211999676,-37.5686179990284,GILLIES/WINTER
5269,144.672749000092,-37.8765029987099,HEATHS/ROSELLA
2972,145.010301000285,-37.7786779993712,VICTORIA NR CLARKE
2973,145.011304000374,-37.7729619990715,VICTORIA NR MITCHELL
1231,144.982433999715,-37.8821749990973,BROADWAY NTH OF GLENHUNTLY RD
1232,144.981566999773,-37.8821069993981,"GLENHUNTLY RD , WEST OF BROADWAY"
2109,144.981167999716,-37.7936539991678,EASTERN NR YOUNG (WEST BOUND)
540,145.174185999978,-37.9214879994051,MONASH FWY/WELLINGTON IB
2110,144.989715999621,-37.794547999486,EASTERN NR GOLD (WEST BOUND)
4896,145.068632000513,-37.6845629993242,PLENTY/ENTERPRISE
5831,144.434916000262,-37.6779139989766,GRANT NR PILMER
4047,144.921099999886,-37.7686029995347,GLADSTONE NR PRATT
4432,144.906850000387,-37.7583589989122,WAVERLEY NR ALMA (MOONEE VALLEY)
2013,145.120348999648,-37.8483459991938,STATION NR BRONTE & DELANY
809,145.314267000349,-37.7853559995123,BRICE NR GEORGE & BATHURST
4656,144.777967000287,-37.7509479989486,STATION/DEER PARK SHOPPING CENTRE
328,145.153843000097,-37.8193709991664,RAILWAY/CHAPEL
4795,145.021149000218,-37.7200159994859,BOLDREWOOD NR GENOA
4796,145.050785999579,-37.7267979988024,KINGSBURY/WATERDALE
4798,144.988444999807,-37.7482249993017,GILBERT NR OAKOVER
4799,145.008366000435,-37.7428339986926,PLENTY NR DAVID
4800,144.994624000355,-37.8180659989568,BRIDGE/LENNOX
4801,144.999169999948,-37.8185839993321,BRIDGE/CHURCH
4802,145.000764000356,-37.818723999351,BRIDGE NR RICHMOND TOWN HALL
4748,145.013835999822,-37.8416739995009,TOORAK/ORRONG
4749,145.020312999657,-37.8424389994637,TOORAK NR IRVING
4750,145.022939000521,-37.8427569987607,TOORAK/KOOYONG
4751,144.987361000276,-37.845988999463,COMMERCIAL NR TYRONE
4752,144.994680000304,-37.8497169988487,LITTLE CHAPEL NR KING
4753,144.994131999434,-37.8468639989373,MALVERN/CHAPEL/BRAY/LITTLE CHAPEL
4754,144.997921000163,-37.8473819990552,MALVERN/BENDIGO/SURREY
4755,145.003185999487,-37.8481029995049,MALVERN/WILLIAMS
4756,145.010274999857,-37.8490189992859,MALVERN NR A'BECKETT
4757,145.012317000535,-37.8492829993216,MALVERN/ORRONG
4758,145.0154929998,-37.8497099993475,MALVERN/CLENDON
4759,145.021444999635,-37.8504979991917,MALVERN/KOOYONG
4760,144.987813999981,-37.8511329993962,HIGH NR PERTH
4761,144.991584000156,-37.8516199989404,HIGH/ST EDMONDS
4763,144.996481000033,-37.8522769990561,HIGH/HORNBY/BANGS
4764,145.002438999733,-37.8530909987336,HIGH/WILLIAMS
4766,145.011561000309,-37.854312999278,HIGH/ORRONG
4767,145.016995999684,-37.8550309987231,HIGH NR CHEEL
3909,145.101918999799,-37.704494999383,GRIMSHAW/CHURCH
4169,145.067692000499,-37.6870659992848,METROPOLITAN RING ROAD/PLENTY
5182,144.358382000023,-38.0553069987061,BACCHUS-MARSH /O'BRIENS
2178,144.952129000418,-37.6475089987902,SYDNEY RD/NORTHBOURNE/TRUCK CITY
3615,144.922263999457,-37.6779089988004,PASCOE VALE/COLERAINE
4636,145.116224999976,-37.942929999338,BOURKE/CLAYTON/OSBORNE
4639,145.063169000503,-37.9216809994854,CENTRE NR CHESTER
4640,145.053043999629,-37.9797799990412,BALCOMBE/CHARMAN
4575,144.973953000444,-37.8133159987105,SPRING/COLLINS
6284,144.275189000062,-36.7670199995278,MYRTLE/WILLS-MYERS
4928,144.801913999793,-37.7444709992701,MAIN ROAD EAST/COLLINS
4929,144.829182999568,-37.7745539990901,MCINTYRE NR SUNSHINE (FIRE STN)
4930,144.779445999724,-37.7419539991666,MAIN/KINGS/STATION
4931,144.798890999861,-37.7441059986836,MAIN WEST/MCKECHNIE
4932,144.799942000053,-37.7442329987616,MAIN/ST ALBANS/ESPLANADE
4933,144.775185999629,-37.7668919990535,STATION NR TRINACRIA
3337,145.085419000224,-37.7315719994641,LWR PLENTY/CREW/MARTINS
4980,144.574017999497,-37.7085059993183,EXFORD NR MORSHEAD
4982,144.567444000467,-37.6881479992909,COBURNS/WESTERN FWY (NTH)
4983,144.566674000238,-37.6921729995497,COBURNS/WESTERN FWY (STH)
4988,144.997820999816,-37.693490999383,MAHONEYS NR THOMASTOWN FIRE
4990,144.999301999736,-37.6787519995383,EDGARS/MAIN
4991,144.991037000559,-37.6927699988614,MAHONEYS/HUGHES
4992,145.001001999911,-37.693812998967,MAHONEYS/EDGARS
4993,145.035391000277,-37.6754439991459,MCKIMMIES NR DAREBIN
4994,145.030516999851,-37.6766059990847,DALTON/THE BOULEVARD
4995,145.069654999747,-37.6788429988113,PLENTY/MCKIMMIES
4996,145.056655000526,-37.6976019988049,SETTLEMENT NR COOK
4998,145.043279000197,-37.6951009993826,SETTLEMENT NR NORRIS
5000,144.683327000313,-37.8749459991894,DERRIMUT/BAGGOTT
5001,144.662037000154,-37.9009459990062,DUNCANS/WATTON
5002,144.781913999523,-37.8441709995562,FITZGERALD/LEAKES/KOROROIT CREEK
5003,144.700178000411,-37.8847739993537,PHW/OLD GEELONG
5004,144.381522999945,-38.0651219995432,CORIO-WAURN PONDS / BRODERICK
5005,144.376835999482,-38.0687769988709,CORIO-WAURN PONDS/PLANTATION/SCHOOL
4935,144.812139000189,-37.7603719994222,FURLONG/ST ALBANS
4936,144.881097999666,-37.7750319992931,HAMPSTEAD/WESTS/WILLIAMSON
4937,144.870394999489,-37.7817519986657,HAMPSTEAD/MITCHELL/OMAR
4938,144.881536999636,-37.7729099994209,WESTS RD/WATERFORD GREEN
4939,144.830968000166,-37.764833999059,MCINTYRE/BERKSHIRE
5044,144.353845999653,-38.1499379994424,MYERS/FENWICK
3798,145.063445000151,-37.810697998782,WHITEHORSE NR CAMPBELL
3212,145.113395000375,-37.9576019993848,HEATHERTON/KINGSTON/CLAYTON/BOUNDARY
2858,144.884236999701,-37.6779369992474,MICKLEHAM/FAWKNER
314,145.182175000363,-37.7654039986842,SPRINGVALE/REYNOLDS
3044,144.892261000287,-37.7542379988861,BUCKLEY NR BATMAN
6210,144.281964000244,-36.7490839987492,BENDIGO-EAGLEHAWK RD
2892,144.803462999604,-37.7153499986991,SUNSHINE/ODESSA
4030,145.063931999769,-37.793496999529,BURKE/DONCASTER/KILBY/HIGH
2891,144.803841000307,-37.7085259987454,SUNSHINE/APOLLO
312,145.124197000568,-38.0220199992518,WELLS/NURTEN/ROYAL PALMS
1901,145.107185999586,-37.7662749990092,THOMPSONS/FEATHERTOP/WELLINGTON
393,145.173117000104,-37.8330039993748,SPRINGVALE NR CAVES
594,145.308532000465,-38.0181469990822,MONASH FWY/NARRE WARREN NTH
3086,144.970087000428,-37.73848499955,PENTRIDGE/STOCKADE
6822,142.532977999855,-38.3846849992756,PHW/MAHONEYS/HORNE
2995,144.913944000255,-37.8371029990332,Webb Dock Drive/Access Road
2469,144.912063000316,-37.8325099992756,Todd Road/Webb Dock Drive/Cook Street
1552,144.94177899983,-37.8202899994744,Bourke Street/Collins Street/Tom Thumb L
2887,144.914821000218,-37.8369489992336,WILLIAMSTOWN/TODD
2399,144.91348300031,-37.8340929987796,TODD/WEBB DOCK/WESTGATE WB RAMPS
120,145.216954999999,-37.85553599932,MOUNTAIN HWY STH OF BARMAH
709,145.083261999839,-37.7785259992465,EASTERN FWY RAMP/THOMPSONS
2649,144.867806000113,-37.7068389991418,SHARPS/AIRPORT
3549,144.997527000359,-37.8987069992041,NORTH NR ST JAMES
2927,144.957922999448,-37.8212069989062,KINGS WAY NR YARRA RIVER
592,145.112199000139,-37.7734459994435,MANNINGHAM/MACEDON
5042,144.366679999816,-38.1466579987756,EASTERN BEACH/BELLERINE/BROUGHAM
5043,144.362182000282,-38.1441619991936,WESTERN BEACH/EASTERN BEACH/MOORABOOL
6664,146.419849999605,-38.312551999301,MONASH WAY/GEORGINA
574,145.14216500015,-37.7988549991205,EASTERN FWY/MIDDLEBOROUGH
575,145.159501999957,-37.801862999313,EASTERN FWY/BLACKBURN
576,145.178065000049,-37.804644999414,SPRINGVALE/EASTERN FWY/EASTLINK
2945,145.077133000187,-37.6579229990053,PLENTY/CENTENARY/UNIVERSITY
313,145.455270999466,-38.0619349987828,PHE/LAKESIDE
825,145.274071999806,-37.8816939989373,BURWOOD HWY NR KELVIN
6205,144.290751999545,-36.7497789989644,MIDLAND HWY/NOLAN
6206,142.164511999758,-34.1836569988042,STURT(DEAKIN)/SEVENTH
5823,143.837462000497,-37.568257999086,PLEASANT NR SOUTH
5826,143.847859999944,-37.5585609992689,DRUMMOND NR MAIR
5840,142.931597000499,-37.2836749990694,BARKLY/VINCENT
4964,144.800511999976,-37.7443019990136,MAIN/ALFREIDA
4965,144.881347999511,-37.8292499991871,MELBOURNE/HUDSONS
4966,144.881513999858,-37.8305019994792,MELBOURNE NR REED
4183,145.049263999491,-37.7101489987163,PLENTY NR LARUNDEL
4184,145.045995999899,-37.7129529990723,PLENTY/MAIN
4185,145.151455999682,-37.7005419988465,WATTLETREE NR ELTHAM NTH PS
4186,145.107310999526,-37.7036959992616,PARA/FLINTOFF
4187,145.089826999719,-37.7031679993546,GREENSBOROUGH HWY/GRIMSHAW ST
4188,145.069301999706,-37.7010519990571,GRIMSHAW/THE CONCORD
4189,145.159061000057,-37.6742369987775,HURSTBRIDGE-MAIN/SHOPPING CENTRE ACCESS
4190,144.919940999892,-37.74258499882,NAPIER/WOODLANDS
4191,144.902610999683,-37.7414629993193,KEILOR NR GILLIES
4192,144.919069999536,-37.735494998964,NAPIER NR LLOYD
4193,144.908156000224,-37.743701999033,KEILOR NR MT ALEXANDER
4194,144.891186000261,-37.7448339991037,HOFFMANS NR SPENCER
4195,144.908879000523,-37.7513109994521,LINCOLN NR FLORENCE
4196,144.896594999944,-37.7547089990598,BUCKLEY/COOPER/FAWKNER
4197,144.902004999534,-37.7553519991685,BUCKLEY NR MCCRACKEN
4198,144.908037000416,-37.7560309989359,BUCKLEY/WAVERLEY/LINCOLN
4199,144.905741999623,-37.7651189994923,WAVERLEY/HOLMES
4200,144.922501999782,-37.7668819990152,PUCKLE NR PRATT
4201,144.902271000081,-37.7701769991146,RALEIGH NR WOODS
4204,144.916177999996,-37.7717379990274,MARIBYRNONG/UNION
4205,144.923925999575,-37.7725649988104,MARIBYRNONG/ASCOT VALE
4123,144.938512000186,-37.745810998908,REYNOLDS/REYNARD/COONANS
4124,144.944442000532,-37.7465369993914,MELVILLE/REYNARD
4125,144.947072999982,-37.746849998997,REYNARD NR BRUCE
4126,144.965329999664,-37.7485799986902,SYDNEY/REYNARD/EDWARD
4127,144.938804000548,-37.7294259994291,CUMBERLAND NR OLIVE
4128,144.96679800011,-37.740170999341,SYDNEY/URQUHART
4129,144.966268000415,-37.743184998785,SYDNEY NR VICTORIA ST MALL
4130,144.965947999816,-37.7450049988588,SYDNEY/HARDING/MUNRO
4131,144.964727999703,-37.7520379993064,SYDNEY NR THE AVENUE
4132,144.977409999751,-37.7462639992358,NICHOLSON/HARDING
4133,144.983896000277,-37.7299129990186,ELIZABETH / MURPHY
4134,144.95866199966,-37.7268549989797,BAKERS NR CATHERINE
4135,144.947489999451,-37.7214879989608,DERBY NR KENT
4136,144.958902000031,-37.7333909992931,GAFFNEY NR MOLESWORTH
4137,144.971688000477,-37.7308379993401,NEWLANDS NR CARR
4138,144.976599000514,-37.7511929993307,NICHOLSON NR RENNIE
4139,144.965006999543,-37.7430589994737,WATERFIELD NR BELL
4140,144.994807000409,-37.785482999115,HODDLE/QUEENS
4142,144.986075999701,-37.8065939994091,WELLINGTON/LANGRIDGE
4143,144.983462999599,-37.8036439992947,SMITH NR CHARLES
4144,144.982993000539,-37.8063709992094,GERTRUDE/LANGRIDGE/SMITH
2955,145.103479999849,-37.9111509993099,HUNTINGDALE NR HUME
2956,145.141611999697,-37.9313459992406,WESTALL/CENTRE
3226,145.008541000478,-37.7111229994923,HIGH NR BARTON
3227,145.009188000114,-37.7074699994378,HIGH NR GLASGOW
4334,145.031082000113,-37.8066939991272,HIGH NR WALPOLE
4335,145.035885000368,-37.8049529990421,HIGH/CHARLES
4336,145.046117999746,-37.8012689987044,HIGH NR CHILDERS
4337,145.031041000114,-37.8068909987194,COTHAM NR HIGH
4339,145.051925999521,-37.7987619989038,HIGH NR WESTBROOK
4340,145.084533999451,-37.8771749991021,WAVERLEY/BATESFORD
4276,145.042147000388,-37.8381769992958,AUBURN NR AIREDALE
4277,145.046096000251,-37.8391889987655,TOORONGA NR BURGESS
4278,145.038541000326,-37.8292599986898,RIVERSDALE NR KOOYONGKOOT
4279,145.024777000395,-37.821379999316,BURWOOD NR MORANG
4280,145.039703999696,-37.82313099924,BURWOOD/WILLIAM
4281,145.051076000417,-37.8264879991409,CAMBERWELL NR MAYSTON
4282,145.022390999876,-37.8142479994426,CHURCH NR GROVE
4283,145.047788999607,-37.8452519990874,TOORAK/TOORONGA OFFICE PARK
4284,145.035751000334,-37.8204779988692,GLENFERRIE/WAKEFIELD
4285,145.04841400012,-37.8241809995545,BURWOOD/CAMBERWELL
4286,145.041166999484,-37.8432759991329,AUBURN NR CATO
4287,145.047074000488,-37.8337739987942,TOORONGA NR CAMPBELL
4289,145.020821000173,-37.8208789992409,BURWOOD NR BARTON
4290,145.060846999585,-37.7297219987045,KINGSBURY/RUTHVEN/WAIORA/ORR
6207,144.275463000319,-36.7608849986984,HIGH (MCIVOR HWY)/SHORT
6208,144.278493000165,-36.7709799991803,OLINDA/RUSSELL
6223,144.292754999672,-36.7574149992681,MCIVOR HWY/STERNBERG
6230,144.263785999626,-36.755641999453,CALDER/LODDON VLY
6232,144.258138999781,-36.7469229992313,LODDON VALLEY/CREETH
6236,144.253698000055,-36.7186519991107,LODDON VALLEY/VICTORIA
6253,144.243945999664,-36.7968289988254,CALDER/LOCKWOOD/CAMP
6254,144.240421000355,-36.8102029992734,CALDER/LANSELL PLAZA
6255,144.250246999654,-36.779792999024,CALDER/OAK
6259,144.261474999694,-36.7711479993019,CALDER HWY[HIGH]/LAUREL
6261,144.27058000055,-36.7634719993782,HIGH (CALDER HWY)/DON (CALDER)/MYRTLE
6262,144.27407600038,-36.7552459991088,BARNARD/VIEW
5075,144.365758000172,-38.1486879988801,MALOP/BELLERINE
5077,144.336212000017,-38.1816279988073,CORIO-WAURN PONDS (SETTLEMENT)/HIGH
5655,147.630197000173,-37.8260619993801,PHE(NTH) NR SERVICE
5803,144.435349000361,-37.6755759993699,WESTERN HWY/GRANT/GISBORNE
5804,144.435960999772,-37.6756169991174,MAIN NR GISBORNE
5805,144.438517999777,-37.6759639993428,MAIN NR GRAHAM
5806,143.891828999936,-37.5580769989852,VICTORIA/FUSSELL/WATER
5807,143.866170000548,-37.560706998899,MAIR/HUMFFRAY
5808,143.877127999534,-37.5606389989611,VICTORIA/QUEEN
5809,143.873423999783,-37.5614939992774,VICTORIA NR KING & OTWAY
5810,143.870352999463,-37.5620539993276,VICTORIA/PRINCES
5811,143.86369999953,-37.563344999472,LITTLE-BRIDGE/PEEL ST
5812,143.86394999963,-37.5620019990254,CURTIS/PEEL STREET
5813,143.862075999928,-37.5618399993538,CURTIS STREET NR LOWE
5814,143.861938999904,-37.563122999565,LT BRIDGE NR GRENVILLE ST
5815,143.860624999846,-37.5627359991617,STURT ST/GRENVILLE
5816,143.860638999754,-37.562085998932,STURT STREET NR GRENVILLE NTH
5817,143.85773699959,-37.5621069994095,STURT ST/LYDIARD
5818,143.861539000165,-37.5646679988107,EASTWOOD NR ANDERSON
5819,143.854805000409,-37.5617609989389,STURT ST/DOVETON
5821,143.839022999583,-37.5598569995063,STURT/PLEASANT
5822,143.894677000357,-37.4237789990034,MIDLAND NR WATER
840,145.150119999944,-37.8205869992709,SOUTH NR MAIN
1064,144.937433999712,-37.7892079987703,RACECOURSE/WESTERN LINK ON/OFF RAMPS
6264,144.271231999484,-36.7567419991314,IRONBARK/BARNARD/WATTLE
1590,145.190110000396,-37.8575389992644,Burwood Highway / Terrara Road
1593,146.889239999541,-36.1210699991001,ELGIN ST B/W HIGH AND HOVELL
1594,146.886800000213,-36.1202399993543,ELGIN ST B/W HUME AND HIGH
1595,146.88567000038,-36.1200799986725,ELGIN ST B/W SMYTHE AND HUME
3578,144.701496000566,-37.8979259989745,Sneydes Road / Hoppers Lane
3577,144.916650000264,-37.8295219995072,Cook Street / Service Station Access
1689,144.774339999645,-37.7731299989775,STATION / WITTON / TULLOCH
1697,145.097256000506,-37.9441899990889,Dingley Bypass / Clarinda Road
1698,145.112739000534,-37.9594539988095,Dingley Bypass / Boundary Road
1699,145.103033999794,-37.9563369989441,Dingley Bypass / Kingston Road
1700,145.128836000425,-37.9626969989909,Dingley Bypass / Tootal Road
1701,145.13487600019,-37.9656719992507,Dingley Bypass / Westall Road
6677,145.522182999637,-38.4179009989466,BASS HWY/STANLEY
6146,146.869929999988,-36.1092409992942,MELROSE/VISY & UNCLE BENS
6048,145.153760000059,-36.7845519987207,GOULBURN VALLEY HWY NR PRENTICE
518,145.303339000104,-38.0266989988712,WEBB NR REBOUND
2987,144.981968999658,-37.8377479994936,TOORAK/PARK
2988,144.977938999528,-37.812127999326,LANSDOWNE/ST ANDREWS
967,145.136777000106,-38.0384169993253,WELLS/AMAROO (SOUTH)
5837,143.820800999614,-37.5466559992252,GILLIES/LAKE GARDENS
3080,144.950216000348,-37.7102059990776,EAST NR MIDDLE (FITZROY)
3214,145.004780000433,-37.7334559993693,HIGH/WOOD/SPENCER
1900,145.083032999534,-37.7795209995245,EASTERN FWY/THOMPSONS ON RAMP OB
2810,145.005536999899,-37.6793989987487,MAIN NR LANTANA
2811,144.989154000259,-37.6481879990545,COOPER/TIP ACCESS RD
2812,144.999108000032,-37.6492569987273,COOPER/GATEWAY
5841,142.930168000182,-37.2837709988723,BARKLY NR VINCENT
5842,143.853317000144,-37.5616009995555,STURT/DAWSON
5875,143.855208999768,-37.5594669987643,MIDLAND HWY/MAIR
5876,143.867500999915,-37.5649819989892,BALLARAT-BUNINYONG/BARKLY
5877,143.850325000037,-37.5500609989822,MIDLAND HWY/MACARTHUR
5878,143.850126999488,-37.542540998931,MIDLAND HWY/SUNRAYSIA/HOWITT
5879,143.849392000144,-37.5353119992242,MIDLAND HWY (CRESWICK)/NORMAN
5901,143.82861399988,-37.5399589994258,HOWITT NR FOREST & SCHOOL LANE
5228,144.3366089995,-38.1393929988182,SHANNON/ALBERT
5242,144.666227000115,-37.9038279987198,DUNCANS/COLLEGE
5243,144.819113000277,-37.8187739989175,LITTLE BOUNDARY/PIPE
444,145.154807000077,-37.9382579993479,SPRINGVALE NR WAREHAM
5246,144.682366999766,-37.88070299915,DERRIMUT/WARRINGA
3293,145.045903000001,-37.8943819992836,GRANGE BTW GARDEN/WATTLE
5249,144.660729000283,-37.9031069988106,WERRIBEE MAIN RD(PHW)/SYNNOT/BRIDGE
5250,144.658569000509,-37.9042999987205,PHW(SYNNOT)/WEDGE
5251,144.660214999927,-37.8973999987033,COTTRELL (EAST)/MARKET
5252,144.701278999483,-37.8794269986776,MORRIS/HEATHS
5253,144.66289000039,-37.9019139993743,DUNCANS/SYNNOT
5254,144.682891000317,-37.8775929987642,DERRIMUT/HEATHS
5300,144.347125000133,-38.1467599992307,HAMILTON HWY (ABERDEEN)/PAKINGTON
5302,144.335466999732,-38.1453759995421,HAMILTON HWY (ABERDEEN)/SHANNON
5303,144.345776999817,-38.1539769991124,PAKINGTON/NOBLE
5304,144.344731000431,-38.1595809991789,PAKINGTON/WEST FYANS
5306,144.334123999743,-38.1526019986919,SHANNON/NOBLE
4910,144.965349000205,-37.8499059987027,CANTERBURY NR ARMSTRONG
4911,144.961202000404,-37.8404739991646,ALBERT/CECIL/AUGHTIE
4912,144.963388000461,-37.8391169995573,ALBERT/CLARENDON
4914,144.964838999648,-37.8361679987496,MORAY NR COBDEN
4915,144.948897000053,-37.8359729990944,DORCAS/PICKLES/INGLES
4917,144.952852999816,-37.8421789987291,VICTORIA NR BRIDPORT
4918,144.960308000238,-37.8440569991766,CANTERBURY/MILLS
4920,144.965819000434,-37.821839998673,CITY/SOUTHGATE
4921,144.961367000394,-37.8199889986824,QUEENS BRIDGE/QUEENSWHARF/BANANA ALLEY
4922,144.963018999774,-37.8216759989819,SOUTHBANK/RIVERSIDE
4923,144.966033999821,-37.8233909988995,SOUTHBANK/KAVANAGH
4924,144.961637000563,-37.8459599987068,CANTERBURY NR WRIGHT
3336,145.066388999445,-37.7421049995451,LWR PLENTY/TURNHAM/RAILWAY CROSSING
2915,144.959342999861,-37.8120249994547,QUEEN/LITTLE LONSDALE
2916,144.956885999462,-37.8127359988694,WILLIAM/LITTLE LONSDALE
2917,144.954373999874,-37.8134469989634,KING/LITTLE LONSDALE
2918,144.970696000501,-37.8074909988471,VICTORIA/LATROBE
2919,144.96874299956,-37.808157998776,EXHIBITION/LATROBE
2920,144.966303999966,-37.8088819991978,RUSSELL/LATROBE
2922,144.961358999847,-37.8103169988211,ELIZABETH/LATROBE
2923,144.958893999544,-37.8110379987724,QUEEN/LATROBE
2924,144.956446000082,-37.8117549995458,WILLIAM/LATROBE
2925,144.953921000175,-37.8124659992333,KING/LATROBE
2926,144.951546999812,-37.8134099992702,SPENCER/LATROBE
2931,144.973633999862,-37.8156399990341,FLINDERS/WELLINGTON STH
2860,144.940511000266,-37.7878299990797,FLEMINGTON/WESTERN LINK OFF RMP/BOUNDARY
2861,144.937261000009,-37.7740279995363,TULLAMARINE/ORMOND/BRUNSWICK
2862,144.935042999766,-37.7520189990162,TULLAMARINE/MORELAND/COONANS
2863,144.924970999997,-37.7348999991761,TULLAMARINE/PASCOE VALE/LOEMAN
2865,144.890063999646,-37.7135189993715,MELROSE/MATTHEWS/DROMANA
2866,144.88865099966,-37.7118589987434,MELROSE/ MASCOMA/WESTFIELD
2867,144.887346999984,-37.7090779991873,MELROSE/MALVERN/EXIT RAMP/CATERPILLAR
2868,144.88194500043,-37.6908159994122,TULLAMARINE/MICKLEHAM
3222,145.004005999676,-37.7379709992755,HIGH/MURRAY
3223,145.005255999538,-37.7307779994362,HIGH/REGENT/TYLER
3224,145.008937000503,-37.7088409989073,HIGH/BROADHURST
3225,145.007614000188,-37.7167199991419,HIGH/BROADWAY
4934,144.831212999727,-37.7627119994433,MCINTYRE/FURLONG
4868,145.016363000532,-37.9764649988228,BEACH NR BALCOMBE
4869,145.00924399978,-37.9582239994063,BEACH NR MASEFIELD
4870,145.045815999851,-37.9789539990822,BALCOMBE NR MICHAEL
4873,145.064385000037,-37.9812579994109,BALCOMBE NR COMO PDE WEST
4164,145.14964299978,-37.6730199987825,MAIN/COLLINS/HYDE
4875,144.958179999499,-37.8399819992173,BRIDPORT/LIGHT RAIL CROSSING
4878,144.957045000451,-37.8253489989888,CLARENDON/WHITEMAN/NORMANBY
2685,144.851501999578,-37.809175999375,SOMERVILLE/ALICK
4880,144.963952000549,-37.8227009988288,CITY/SOUTHBANK
4882,144.960162000099,-37.8257189993662,CITY/MORAY/QUEENSBRIDGE
3128,145.080952999566,-37.8240019987886,CANTERBURY NR ROCHESTER
3129,145.088619999604,-37.8249149995186,CANTERBURY NR KENNEALY
3132,145.136299000439,-37.8304079988433,CANTERBURY/MIDDLEBOROUGH
3133,145.117887999492,-37.8283009995151,CANTERBURY NR GIBSON
3134,145.12247799983,-37.8252589992113,STATION NR KENT
3135,145.104527999994,-37.8211769995195,MONT ALBERT NR LEOPOLD
3136,145.139955999863,-37.8125659994708,MIDDLEBOROUGH/LEXTON
3137,145.126945000338,-37.8293229991884,CANTERBURY NR CLYDESDALE
3140,145.067740000049,-37.966869998972,CENTRE DANDENONG NR COOLAC
3141,145.087066000342,-37.9692569987094,CENTRE DANDENONG/GRANGE
4451,144.978982000306,-37.8164629989862,WELLINGTON STH/JOLIMONT
4452,144.98014799955,-37.8165889992351,WELLINGTON NR AGNES
4453,144.985186999694,-37.8163809987765,WELLINGTON/POWLETT
4455,144.978523000477,-37.8087149993171,VICTORIA/LANSDOWNE
4457,144.987981000486,-37.8168379990943,WELLINGTON NR SIMPSON
4460,144.941002000279,-37.7884669990681,FLEMINGTON/CHURCH
4462,144.943670000418,-37.7906009987902,FLEMINGTON NR MELROSE
4404,144.96585200046,-37.806973998828,VICTORIA/LYGON
4405,144.968845999562,-37.8072939988573,VICTORIA/RATHDOWNE
4326,145.057404999988,-37.809978999422,COTHAM NR BRADFORD
4327,145.034980000509,-37.8096449993165,WELLINGTON/CHARLES
4330,145.037310999849,-37.8120959990716,GLENFERRIE NR FITZWILLIAM
4331,145.049310000258,-37.8127619989251,SACKVILLE NR THOMAS
4332,145.052992000033,-37.8094489988749,COTHAM NR JOHN
4333,145.045835999693,-37.808602998709,COTHAM NR MARSHALL
3102,145.02069499989,-37.9537999989211,BAY/BLUFF
3103,145.01743500015,-37.9693209994817,BLUFF NR ARKARINGA
3104,144.995371999835,-37.9344019990281,BEACH NR ORLANDO
3109,144.958304999563,-37.776837998992,BRUNSWICK NR WATSON
3112,144.960440000475,-37.7770949987767,SYDNEY/BRUNSWICK
3113,144.970696000481,-37.7782929990364,BRUNSWICK/LYGON
3115,144.978249999528,-37.779070999066,BRUNSWICK/NICHOLSON/HOLDEN
3121,145.063429000023,-37.8219929987163,CANTERBURY NR LOCH
3122,145.065710000278,-37.8222619989588,CANTERBURY/STANHOPE
3123,145.06891099987,-37.8224899986659,CANTERBURY NR MANGARRA
3066,145.041323000024,-37.7497989988174,BELL/ORIEL NTH
3124,145.070978999493,-37.8228649993108,CANTERBURY NR CHAUCER
3126,145.099929000481,-37.8262469986857,CANTERBURY/WARRIGAL
3029,144.99926700025,-37.9391209988858,BEACH NR SMALL
3030,145.001255000394,-37.9443509990296,BEACH/HAMPTON/BRIDGE
3031,145.002695000384,-37.9509939990529,BEACH NR MELROSE
3032,145.003658999682,-37.9519809993762,BAY/BEACH
3033,145.012195000037,-37.9680879994086,BEACH NR BAYVIEW
3034,145.03416399977,-37.9941759990685,BEACH NR TRAMWAY
3035,145.059842000338,-37.9887319993341,BEACH NR NAPLES
3036,145.085025999734,-38.008068998905,BEACH/CENTREWAY
3037,145.015616000417,-37.9749899992786,BEACH NR BLUFF
3038,144.955648999737,-37.8512069991107,BEACONSFIELD NR MILLS
3039,144.934475999482,-37.8414049993445,BEACH NR PRINCES
3040,145.07596000005,-38.0000579990209,BEACH NR HERBERT
3544,144.951426000195,-37.8276219987268,NORMANBY/MELB CONVENTION CENTRE
4361,145.044105000302,-37.8585279994459,HIGH NR VINCENT
4362,145.048580000498,-37.859061999367,HIGH NR ERICA
4363,145.051324999824,-37.8593889987348,HIGH/BURKE
4364,145.058410000227,-37.8600499995401,HIGH NR WILLS
4366,145.033626000067,-37.863067999542,WATTLETREE/COONIL
4367,145.040135000118,-37.8639099994412,TOORONGA/WATTLETREE
4368,145.050242000132,-37.8651139989942,BURKE/WATTLETREE
4370,144.950184000052,-37.8225859993039,WURUNDJERI/BATMANS HILL DR
4309,144.887306000387,-37.7353229987509,KEILOR NR RYDER
4310,144.890130999618,-37.7364519987417,KEILOR NR MATTHEWS
4312,144.864542999901,-37.7359439993387,MILLEARA NR CLARKS
4314,144.860648000488,-37.7543249990378,MILLEARA NR CHAUMONT
4315,144.86039999958,-37.7584469987668,MILITARY/DAVIS
4316,144.863791000375,-37.7664359992729,MILITARY NR CLARENDON
4318,144.890500999973,-37.7271869988826,MATTHEWS NR EARL
4319,144.891067000116,-37.7235239992364,MATTHEWS NR HAWKER
4320,145.03980100009,-37.8035449993537,HIGH NR PARK HILL
4321,145.0506280002,-37.7993279987336,HIGH/HARP/VALERIE
4322,145.060968000293,-37.7948009993479,HIGH NR KEW HIGH SCHOOL
4323,145.035415999972,-37.8073989993451,COTHAM/CHARLES
4953,144.83029400054,-37.7959159986937,HAMPSHIRE/WRIGHT
4954,144.833227000412,-37.7962499994084,WRIGHT NR STANFORD
4955,144.838861000054,-37.7968889994154,SUNSHINE/MARKET/WRIGHT
4956,144.826927999838,-37.787975999038,ANDERSON/DURHAM/GLENGALA
4958,144.856231000095,-37.7919659993288,SOUTH NR MELON
4959,144.827337000401,-37.7853719990034,ANDERSON/FORREST/SUN/FRASER
4961,144.885509999731,-37.775559998745,ROSAMOND/WILLIAMSON/AQUATIC
4962,144.777680000143,-37.7525919994351,STATION/NEALE
4963,144.830153000088,-37.769354998687,MCINTYRE NR BARWON
4233,144.898785999528,-37.8041539993152,BUCKLEY/NICHOLSON
4234,144.897407999475,-37.8039809994374,ALBERT/BUCKLEY
4235,144.892392999437,-37.8032589990336,BUCKLEY/VICTORIA
4236,144.906354000201,-37.8005469989998,HOPKINS/DYNON/WHITEHALL
4238,144.899575999963,-37.799783999316,BARKLY/DROOP/HOPKINS/NICHOLS
4240,144.888213999733,-37.7985379989158,BARKLY/GORDON
2869,144.883063999635,-37.6844219992066,MICKLEHAM/RYLANDES/WESTERN
2870,144.933663999598,-37.7732439988725,ORMOND/MYRNONG/PATTISON
2871,144.88243000024,-37.6881009989959,MICKLEHAM/GLADSTONE PARK/INTERNATIONAL
2872,144.880491999575,-37.6986159986701,MICKLEHAM NR TANGEMERE
2874,144.891906999795,-37.7183939992888,MATTHEWS NR VICTORY
2877,144.805850000563,-37.7286359988736,TAYLORS/KEILOR DOWNS S/C WEST ENT
2878,144.850184000532,-37.7373729988592,KEILOR PARK EXT/WRR NB ON-OFF RAMPS
2879,144.852445999908,-37.7394929987957,KEILOR PARK/SLATER/WRR SB ON-RAMP
2880,144.880960000367,-37.8259889991804,WESTGATE FWY/WILLIAMSTOWN
2882,144.848927999872,-37.8270729991678,MILLERS/DUOSA/MARIGOLD
2883,144.829313000126,-37.8260169988012,WESTGATE FWY/GRIEVE
2146,144.961023999993,-37.7065929988241,SYDNEY RD/MAJOR
2886,144.94620999959,-37.8252519993315,WESTGATE FWY EB/LORIMER
2888,144.930714000103,-37.821632998795,LORIMER/GRAHAM
2775,145.029693999771,-37.65066399887,DAVISSON NR WEDGE
2776,145.034355999718,-37.661217998852,CHILDS NR BEAUMONT
2777,145.025980999819,-37.6603939991354,CHILDS NR SUPPLY
2778,145.055154999555,-37.6974389993093,SETTLEMENT/BROWNHILL
2779,145.062052999574,-37.6685959992416,CHILDS/REDLEAP
2780,144.886209000568,-37.8021729988399,BUCKLEY NR PHW
2781,144.890755000336,-37.7846339988126,GORDON/EDGEWATER/MITCHELL
2782,144.903714999459,-37.7982109989888,MOORE/DONALD
2783,144.8929430003,-37.8001329988888,VICTORIA/PAISLEY
2784,144.894694000543,-37.800326998873,PAISLEY NR FRENCH
2786,144.897295999462,-37.7995029993423,FRENCH/BARKLY
2820,145.03152200042,-37.7929649990228,CHANDLER HWY/PRINCESS
2821,145.029755000057,-37.7919849992396,CHANDLER HWY EAST OF FWY WB
2823,145.026122000543,-37.7895009991465,CHANDLER HWY/EAST FWY E OFF
2824,145.025713000379,-37.7888349987801,CHANDLER HWY NR YARRA
2825,145.063528000338,-37.7853359988301,EASTERN/BURKE ON RAMP
2826,145.065036999434,-37.787505998833,BURKE/OLD BURKE/BOULEVARD
2827,145.078645000122,-37.7795309992604,EASTERN FWY/BULLEEN/THOMPSONS
2828,145.104258999777,-37.7884119990618,EASTERN FWY/DONCASTER
2829,145.099698000427,-37.7898909995568,DONCASTER/GREYTHORN
2034,145.055048999969,-37.8400889994558,BURKE NR PINE
2351,144.995454999841,-37.8923099990688,NEW/HEAD
4926,144.83275399948,-37.7867239990485,"DICKSON ST, CLARKE ST, BUS INTERCHANGE"
469,145.155592999544,-37.873052998723,HIGH ST RD NR WESLEY COLLEGE
866,145.227346999519,-37.8123189987288,RINGWOOD/EASTLAND SHOP
2041,145.095363000067,-37.791290999411,DONCASTER NR CENTREWAY
2042,145.074572999746,-37.8628039990644,HIGH/SUMMERHILL
2051,144.833712999727,-37.7186999988428,OLD CALDER HWY NR KENNEDY
1043,144.949642000141,-37.7767679992488,PARK/TRAMWAY CROSSING
1044,144.959397999818,-37.784722999483,ROYAL/WALKER
1045,144.95535799957,-37.8216989993613,SPENCER NR FLINDERS
1051,144.949343999936,-37.8051469994373,VICTORIA/ERROL
1052,144.982614000125,-37.8160949994431,WELLINGTON/CLARENDON
1053,144.946272000006,-37.7984489991083,ABBOTSFORD/HAINES
1054,144.941156999543,-37.7974699986755,MACAULAY NR FOGARTY
2628,144.832731999887,-37.7515759993777,WRR/SUNSHINE/MCINTYRE
2629,144.830626999537,-37.7479059989169,SUNSHINE/MAIN ROAD EAST
1057,144.958037000115,-37.7958169992934,ROYAL NR MORRAH
1059,144.95548100018,-37.8096759992393,FRANKLIN/PEEL/WILLIAM
649,145.212636000222,-37.9882229992734,WALKER/THOMAS
4324,145.038153000388,-37.8077149993275,COTHAM/GLENFERRIE
4325,145.0492210004,-37.8090029995042,COTHAM NR FLORENCE
1230,144.739899999877,-37.7142099987388,GOURLAY/LANSFIELD DRIVE
2306,144.987269999563,-37.8679719986817,NEPEAN/CARLISLE
2307,144.988420999566,-37.8701619989355,BRIGHTON NR DICKENS
2308,144.989673000526,-37.872034998709,NEPEAN/CHAPEL
2309,144.990003000279,-37.8726849994677,NEPEAN NR MILTON
2310,144.992362999627,-37.8762499988681,NEPEAN/GLEN EIRA/BYRON
2311,144.969537000508,-37.8586339992199,BEACONSFIELD/COWDEROY
2313,144.999200999811,-37.8861609995431,NEPEAN/RUSDEN
2316,145.006458999446,-37.8998369986883,NEPEAN/NORTH
2318,145.043970000535,-37.9564719993842,BAY NR JACK
2320,145.018117999985,-37.9158969992162,NEPEAN/CENTRE
2321,145.022317999769,-37.9206949993582,NEPEAN/MARRIAGE/THOMAS
2322,145.034374000353,-37.933005999431,NEPEAN/SOUTH
2323,145.036724999957,-37.9358599990842,NEPEAN/STATION/KEILLER
2324,145.043237999577,-37.9451949987352,NEPEAN/WICKHAM
2327,145.056087000277,-37.9632999988647,NEPEAN/CHESTERVILLE/CHARMAN
2330,145.074113000209,-37.9825939989059,NEPEAN/LWR DANDENONG
2331,145.081350999858,-37.9907089989663,NEPEAN/PARKERS/IMES
2332,145.083797000211,-37.9983009990002,NEPEAN/WHITE
2168,144.964379999769,-37.6902249986709,MAHONEYS/PIPEWORKS MARKET
2169,144.884068000404,-37.6816259991244,MICKLEHAM/BROADMEADOWS DEV
4940,144.884101000397,-37.7829489988077,MITCHELL/ROSAMOND
4941,144.884874999729,-37.7789249991254,ROSAMOND NR FISHER
4942,144.886703000185,-37.7689969987311,RALEIGH/ROSAMOND
4943,144.891997999518,-37.7689679993886,RALEIGH NR WARRS
4944,144.895954000349,-37.7694359994557,RALEIGH/VAN NESS
4945,144.827476999907,-37.7844759988443,ANDERSON NR RIDLEY
4946,144.832067999453,-37.78486399909,DEVONSHIRE/HAMPSHIRE
4947,144.845997999784,-37.78645199886,DEVONSHIRE/DUKE
4948,144.864409000412,-37.7866069988184,ASHLEY/CHURCHILL
4949,144.863276000281,-37.7928509988301,ASHLEY/SOUTH
4950,144.862670999627,-37.7957619994414,ASHLEY/BARKLY
4951,144.862107000549,-37.7995469986832,ASHLEY/SUNSHINE/DEMPSTER
4952,144.826356000285,-37.795457999313,WRIGHT/ANDERSON
4883,144.958098999494,-37.8276429987234,CITY/CLARENDON
4884,144.956083999738,-37.8293359986756,CITY/CECIL/BALLANTYNE
4885,144.954069000128,-37.8310799988499,CITY/FERRARS/MARKET
4886,144.952096999835,-37.8327449987885,CITY/MONTAGUE/YORK
4501,144.945143999486,-37.8047099993013,VICTORIA/ABBOTSFORD
4502,144.947774000304,-37.8049839989724,VICTORIA/KING/CURZON
4447,144.983554000161,-37.8104119993939,ALBERT/CLARENDON
4448,144.9861590005,-37.8107039989852,ALBERT/POWLETT
4449,144.988768000253,-37.8109969992402,ALBERT/SIMPSON
1388,145.041994999792,-37.9487539993535,HIGHETT/GRAHAM/RAILWAY
1390,145.109231000207,-38.2139279993183,MOOROODUC NR ERAMOSA WEST
4526,144.952189999697,-37.8218469993961,WURUNDJERI/FLINDERS
3663,145.028763000519,-37.8088659990675,DENMARK/WELLINGTON
6332,144.97939400024,-37.4130869990193,NORTHERN/QUEEN
4879,144.960831000498,-37.8232119993266,QUEENS BRIDGE/WHITEMAN/POWER
4925,144.958607999755,-37.82427299879,WHITEMAN/CASINO/KINGSWAY RAMPS
5985,143.739072000394,-37.0458379994228,PYRENEES HWY(TUAGGRA)/HIGH
5999,142.931802999591,-37.2824789986782,WESTERN HWY(HIGH)/PYRENEES(VINCENT)
6021,145.99220799983,-36.5497709994519,BRIDGE NR SALISBURY
6047,145.571482000093,-36.7559449989334,CLIFTON/ANDERSON
5902,143.831278999601,-37.5402829994627,HOWITT/FOREST
3228,145.010539000486,-37.6999689993289,HIGH NR CHURCH
3229,145.01187499977,-37.6948709993392,HIGH/MAHONEYS/KEON
3230,145.012571000363,-37.6878109986669,HIGH/SETTLEMENT
3231,145.013835000258,-37.6802449988659,HIGH/MAIN
3232,145.015563000326,-37.6726259993148,HIGH/MANNS CROSSING
3233,145.016449999603,-37.6662519990999,HIGH/PASCHKE/KINGSWAY
3234,145.012779999452,-37.6865539994181,HIGH/AUSTARC
3235,145.006044999571,-37.7264729986836,HIGH NR QUEEN
3236,145.019097999957,-37.6596499990189,HIGH/CHILDS
3237,145.016591000355,-37.665574999279,HIGH/KINGSWAY (SEE 3233)
3239,145.035027999939,-37.6940099991628,SETTLEMENT/APEX
3251,144.728966999847,-37.5826029992304,O'SHANNASSY NR STATION
3260,145.025004000266,-37.7322729989632,ALBERT/TYLER
3127,145.079251000193,-37.8238019989037,CANTERBURY/BALWYN
4291,145.066704999582,-37.7299229987343,RUTHVEN NR BELLEVUE
4292,145.049131999889,-37.7344629988414,WATERDALE/DOUGHARTY
4293,145.059857999504,-37.7355639987375,WAIORA/DOUGHARTY
4294,145.036805999633,-37.7409979992498,SOUTHERN/LIBERTY
4295,145.042832000546,-37.7416419991045,SOUTHERN/ORIEL
4296,145.047814999687,-37.7421739994068,SOUTHERN/WATERDALE
4297,145.05858499979,-37.7432239989473,SOUTHERN/WAIORA
3190,145.141552999892,-37.8036799992476,MIDDLEBOROUGH NR KATRINA
3192,145.139601999693,-37.8145749989474,MIDDLEBOROUGH NR MCKEAN
3193,145.137209999674,-37.82562599926,MIDDLEBOROUGH/ALBION
3195,145.13348300015,-37.8458379988446,MIDDLEBOROUGH/ELEY
3197,145.119370000218,-37.9270429989406,CLAYTON NR DUNSTAN
3198,145.119061000105,-37.9285269989127,CENTRE/CLAYTON
3199,145.092698999657,-37.9252819990969,CENTRE/ESKAY
3200,145.116777000072,-37.9403689989215,CLAYTON/FAIRBANK
3067,145.046086000083,-37.7511379991513,BELL/WATERDALE
3068,145.050317000165,-37.7527639994567,BELL/EDWIN
3069,145.056375999466,-37.7550569987019,BELL/BURGUNDY/UPR HEIDELBERG
3070,145.064634999694,-37.7560349990491,BURGUNDY/HAWDON
3071,145.06713500014,-37.7563379991062,BURGUNDY/CAPE
3074,144.949053000302,-37.7360079988373,SUSSEX/O'HEA
3075,144.95714299996,-37.7403889991391,BELL NR ALICE
3076,144.962529999975,-37.7409289989206,BELL/HUDSON/MAIN
3100,145.023892000553,-37.9372839994581,BLUFF NR APEX
3101,145.022186000514,-37.9464029993875,BLUFF/HIGHETT
2903,144.967202000169,-37.8108419989769,RUSSELL/LONSDALE
2904,144.964732000444,-37.8115609990548,SWANSTON/LONSDALE
2905,144.963406999692,-37.811946999306,LONSDALE NR ST FRANCIS
2907,144.95978899972,-37.8130039988219,QUEEN/LONSDALE
2908,144.957323000023,-37.8137119990373,WILLIAM/LONSDALE
2909,144.95482599946,-37.8144259986741,KING/LONSDALE
2910,144.952341000388,-37.8151369992358,SPENCER/LONSDALE
2911,144.969196000186,-37.8091359988701,EXHIBITION/LITTLE LONSDALE
2912,144.966749000223,-37.809853998989,RUSSELL/LITTLE LONSDALE
2913,144.964280999552,-37.8105739988509,SWANSTON/LITTLE LONSDALE
2914,144.961809000491,-37.8112989993159,ELIZABETH/LITTLE LONSDALE
738,145.133768999824,-38.1536099994529,FRANK-FLIND/MCMAHONS(MOOROODUC/HASTINGS)
739,145.128437000339,-38.1034509993815,RAILWAY/STATION/MCKENZIE
740,145.135068999976,-38.1216689987934,WELLS NR MCCULLOCH
742,145.14236400014,-38.1100569994644,SEAFORD/HARTNETT
744,145.170676000384,-38.1563389990116,CRANBOURNE/MCCLELLAND
745,145.124697999965,-38.1473159991943,DAVEY/BAXTER/HASTINGS
746,145.157139000265,-38.1527829993106,CRANBOURNE NR WATTLE TREE
747,145.165509000247,-38.1550349989396,CRANBOURNE/KARINGAL HUB ENT
748,145.127527999693,-38.1416079994181,FLETCHER/BEACH/RAILWAY
749,145.167626000555,-38.1052979995292,FRANKSTON-DANDENONG/O'GRADYS
750,145.125424999995,-38.1462839993562,CRANBOURNE/PLAYNE
751,145.136813999768,-38.1441469992916,BEACH/MCMAHONS
752,145.172498000155,-38.0994439987991,FRANKSTON-DANDENONG/LATHAMS/HALL
758,145.175397999812,-38.2235989989028,FRANKSTON-FLINDERS NR ERAMOSA
1554,144.730538000392,-37.8380159994069,Leakes Road  /Forsyth Road
2600,144.897949000387,-37.7937429991403,WESTERN HWY NR TIERNAN
2602,144.894451000491,-37.7926809988832,WESTERN HWY/DROOP/FARNSWORTH
2603,144.889500000564,-37.7911829987535,WESTERN HWY/GORDON
2604,144.885955000175,-37.7897609988399,WESTERN HWY/ELEANOR
2605,144.883093999697,-37.7885979988475,WESTERN HWY/ROSAMOND/S'HILL
2606,144.868936000237,-37.7828659993738,WESTERN/CHURCHILL
2608,144.852528000386,-37.779686999097,WESTERN HWY / DARNLEY / BUTLER
2609,144.847199000381,-37.7791019992681,WESTERN HWY/DUKE
2611,144.836056999882,-37.777832998979,WESTERN HWY NR WESTMORELAND
2612,144.833395000252,-37.7775329991675,WESTERN HWY/HAMPSHIRE
2504,144.900530999556,-37.7944629987945,PHW/WESTERN HWY
2613,144.828720000242,-37.7770589986802,WESTERN HWY/MCINTYRE/ANDERSON
2614,144.77471000008,-37.7703089993237,WESTERN HWY/STATION
2615,144.876519999991,-37.7859359990651,WESTERN HWY NR THOMSON
2616,144.799848000404,-37.7719379995302,WESTERN HWY/HOLT/G & F ENT
2414,145.027660000557,-37.8664619994833,PHE/GLENFERRIE/HAWTHORN
2415,145.029306000309,-37.8669059987815,PHE NR CARNARVON
2416,145.031261000042,-37.8684779990309,PHE/NORMANBY/STATION
2417,145.038283000409,-37.8736219992491,DANDENONG/TOORONGA
2418,145.041940999804,-37.8755329990599,PHE/FINCH/DERBY
2419,145.0473469999,-37.87815499896,PHE/BURKE/SIR JOHN MONASH
2420,145.049558000563,-37.8811629988857,PHE/GRANGE
2421,145.058072999925,-37.8838879993784,PHE/DARLING/KOORNANG
460,145.102667000104,-37.8669119994251,HIGH ST RD/VANNAM/JORDAN
461,145.149071999597,-37.8766629986932,COLEMAN NR FIANDER
1002,144.913585999514,-37.7793899991886,EPSOM/LANGS
1003,144.924160000298,-37.7659529995541,MT ALEXANDER NR COMMU CENTRE
1005,144.924534000275,-37.7690209994164,ASCOT VALE/GLADSTONE
1010,144.914742999822,-37.7805889991068,EPSOM/UNION
1012,144.908323999879,-37.741328999544,BULLA/WOODLAND
1013,144.921772999508,-37.7852759989643,ASCOT VALE NR EDINBURGH
1014,144.908649999901,-37.7741809987214,EPSOM NR ROSEBERRY
6260,144.250037999733,-36.77361199918,GOLDEN SQUARE-LONG GULLY/SYMONDS
3482,144.833790999762,-37.8500189989547,KOROROIT CREEK/DRAKE
548,145.28321300038,-38.0830729986883,THOMPSONS/ROSEBANK/SPRINGHILL
4091,145.021968999488,-37.8868989992926,HAWTHORN/GLENHUNTLY
4092,145.028788999751,-37.8877659992322,GLENHUNTLY/BAMBRA
4093,145.03766099965,-37.8888789990917,GLENHUNTLY/BOORAN
4094,145.007723000036,-37.8752359992228,ORRONG NR MERTON
4095,145.01808499944,-37.8699939991396,KOOYONG NR CRIMEA
4096,145.021097000219,-37.8722249988045,BALACLAVA NR KINROSS
4097,145.020790000555,-37.8931269991886,HAWTHORN NR ELLINGTON
4098,145.027387000205,-37.8950719994632,BAMBRA NR BUNDEERA
4099,145.056147999999,-37.8940199992022,KOORNANG/TRUGANINI
4100,145.064315999494,-37.9014589987408,MURRUMBEENA NR OAKLEIGH
4101,145.076748000332,-37.8946319992153,POATH/RAILWAY/WILLESDEN
4102,145.057359000394,-37.887690999497,KOORNANG NR JERSEY
4103,145.009177999858,-37.8675409992631,INKERMAN/ORRONG
4104,145.015713000147,-37.8821689994063,KOOYONG NR ALLISON
4105,145.009875000274,-37.863727999116,ORRONG/ALMA
4106,145.054172000416,-37.8909619995494,GLENHUNTLY/TRUGANINI
4109,145.003479000243,-37.8846329988864,GLENHUNTLY NR CARRE
4111,144.95170999945,-37.7180669988837,BOUNDARY/SUSSEX
4112,144.938460000156,-37.7315029990799,GAFFNEY/CUMBERLAND
499,145.188405999819,-37.9103929990426,JELLS/WHEELERS HILL SHOPPING CENTRE
577,145.148704999904,-37.8523239993365,BURWOOD HWY/HOLLAND/K-MART ENT
578,145.146441000446,-37.8520269990018,BURWOOD HWY NR HIGHVIEW
579,145.137583000249,-37.8517459995103,BURWOOD HWY NR CROW
580,145.137745999832,-37.8582619991099,HIGHBURY NR NARMARA
581,145.140557999996,-37.8091439994221,MIDDLEBOROUGH/SPRINGFIELD
582,145.194599999739,-37.8276599995354,MITCHAM NR ORIENT
583,145.143298000206,-37.8094419994532,SPRINGFIELD NR SELWYN
584,145.170595999745,-37.8124649986655,SPRINGFIELD NR MARDION
585,145.15770199962,-37.8110379991168,SURREY/SPRINGFIELD
586,145.151650000079,-37.8103529990353,SPRINGFIELD/WILLIAMS
587,145.158566999883,-37.8066739988611,SURREY NR JUNCTION
590,145.1896880001,-37.803719999251,MITCHAM/PARK
599,145.236765000314,-38.0018569992349,PHE/PROGRESS
600,145.278560999692,-38.0087899991184,PHE/FITZGERALD/HINRICHSEN
601,145.290167000019,-38.0144059989343,PHE/TINKS
602,145.257560000225,-38.0043389991736,PHE/HARMER/WEDGEWOOD
604,145.306728999462,-38.0262309992492,PHE/NARRE WARREN-CRANBOURNE
605,145.242283000062,-37.9730729987144,HEATHERTON/POWER
606,145.238030000265,-37.9950859991379,POWER/PAPERBARK/BOX
607,145.258123000328,-37.9749599994356,HEATHERTON/MATTHEW FLINDERS
608,145.467174000505,-38.0663809994007,PHE/PAKENHAM/DUNCAN
609,145.481405000053,-38.0715339990555,PHE NR DEVENEY
457,145.275589000477,-37.883209999212,FERNTREE GULLY/MOUNTAIN GATE
459,145.257600999546,-37.8919669989602,FERNTREE GULLY/SCORESBY
3753,144.884161999471,-37.8092159989269,WILLIAMSTOWN NR WEBB
446,145.139770000251,-37.9008909986978,FERNTREE GULLY NR HOWLEYS
448,145.164027000205,-37.874024999436,HIGH ST RD/SNEDDEN
449,145.179739999809,-37.9056469988393,FERNTREE GULLY/LUM
451,145.142932999885,-37.9012559990458,FERNTREE GULLY/BLACKBURN
452,145.14949600003,-37.9021489994883,FERNTREE GULLY NR AVONHURST
453,145.148657999637,-37.8707879990177,BLACKBURN NR TAMBO
455,145.189038999891,-37.9068029992714,FERNTREE GULLY/JELLS
456,145.232833999736,-37.8991679989097,FERNTREE GULLY/STUD
380,145.296984999971,-37.8829259988512,FOREST NR ALPINE
381,145.26403699948,-37.8785139992167,BURWOOD HWY/DOBSON (AMBULANCE DEPOT)
383,145.214518000552,-37.8769149994614,HIGH ST RD/CATHIES
384,145.247043000448,-37.8964429992147,FERNTREE GULLY/HENDERSON/ST LAURENT
385,145.299461000489,-37.8761239993635,FOREST NR DOYSAL
405,145.194351999848,-37.9377449989176,MONASH EXIT RAMP/POLICE
406,145.197389000387,-37.9379939994649,POLICE NR MONASH
407,145.163901999777,-37.8795269990642,KINGSWAY/RAILWAY PDE NTH/COLEMAN
408,145.166318999635,-37.8772109990717,SPRINGVALE/THE GLEN SHOPPING
409,145.174191000318,-37.8276219991305,SPRINGVALE NR MILTON
333,145.158048000207,-37.7886819987404,DONCASTER/DRYDEN
337,145.171046000045,-37.7901709989636,DONCASTER/TUNSTALL
358,145.148398000062,-37.8722049988052,BLACKBURN/HIGH ST RD
359,145.147578000032,-37.8764959989488,BLACKBURN/COLEMAN
361,145.178950999594,-37.8756589989172,HIGH ST RD/GALLAGHERS
416,145.175439999647,-37.8214499993159,SPRINGVALE NR STATION
420,145.169226999623,-37.8620159988332,SPRINGVALE/HIGHBURY
432,145.158666999638,-37.9186889993001,SPRINGVALE/WELLINGTON
435,145.152836000518,-37.9494139992837,SPRINGVALE/LIGHTWOOD
462,145.177358000005,-37.8841509990545,GALLAGHERS NR TOWNSEND
463,145.111702999498,-37.8679289986937,HIGH ST RD/HUNTINGDALE
464,145.130061999523,-37.8700899988131,HIGH ST RD/STEPHENSONS
465,145.135506000173,-37.8707119992808,HIGH ST RD NR CHARLES
466,145.142213000489,-37.8714779988735,HIGH ST RD/LAWRENCE
467,145.151386000478,-37.8725579992933,HIGH ST RD NR HUNTER
468,145.123059000269,-37.8565769995393,HIGHBURY NR FINCH
869,145.227316999905,-37.8106239994251,RINGWOOD/RINGWOOD BYPASS
470,145.112476000067,-37.8639079990894,HUNTINGDALE NR ROCKLANDS
471,145.109722000419,-37.878639999307,HUNTINGDALE NR MCLOCHLAN
472,145.189530999673,-37.9372359988464,POLICE/BROWNS
474,145.110735999564,-37.8732059986787,HUNTINGDALE NR RAILWAY
475,145.161642999983,-37.9337559993692,POLICE NR DUNOON
476,145.130940999592,-37.8654639990323,STEPHENSONS NR SIMPSON
477,145.178908999915,-37.8696799990452,CAPITAL NR WESTLANDS
4113,144.941336999856,-37.7318129991035,GAFFNEY NR LANDELLS
4114,144.945798999547,-37.7322929993974,GAFFNEY/DERBY
4116,144.967865000027,-37.7342759987507,MURRAY/CHAMP
4117,144.972169000013,-37.7354669987692,MURRAY/NEWLANDS
4118,144.975166000049,-37.7355609987403,MURRAY NR COBURG POOL
4119,144.98290700032,-37.7359559993725,MURRAY/ELIZABETH
4121,144.966949000476,-37.7377579994134,SYDNEY/O'HEA
4122,144.935841000273,-37.745473999079,REYNARD NR MITCHELL
4061,145.064458999633,-37.8108169993045,WHITEHORSE NR BARNSBURY
4062,145.068330999551,-37.8112779990197,WHITEHORSE NR PARKSIDE
4063,145.081344000098,-37.8128419989032,WHITEHORSE/BALWYN
4064,145.086313000019,-37.8134419992076,WHITEHORSE NR BRENBEAL
4065,145.066715999907,-37.8167279994506,MONT ALBERT NR RUBENS
4066,145.080299999998,-37.8183199993514,BALWYN/MONT ALBERT
906,145.227176999485,-37.8282019995157,WANTIRNA NR DAISY
907,145.22731599988,-37.820468998979,WANTIRNA NR ELLISON
908,145.235316999627,-37.7947519994236,WARRANDYTE NR OBAN/MELVIEW/DICKSON
911,145.218617999501,-37.8088769991691,LOUGHNAN/MONTALBO
912,145.235452999934,-37.7933149991323,WARRANDYTE NR POWRIE
